countyfips,county_name,state,lat,lng
1001,Autauga,AL,32.500389,-86.494165
1003,Baldwin,AL,30.548923,-87.762381
1005,Barbour,AL,31.844036,-85.310038
1007,Bibb,AL,33.030921,-87.127659
1009,Blount,AL,33.955243,-86.591491
1011,Bullock,AL,32.116327,-85.701192
1013,Butler,AL,31.773539,-86.65355
1015,Calhoun,AL,33.72546,-85.819442
1017,Chambers,AL,32.860439,-85.266474
1019,Cherokee,AL,34.179333,-85.629194
1021,Chilton,AL,32.877547,-86.687406
1023,Choctaw,AL,32.016562,-88.264164
1025,Clarke,AL,31.685685,-87.815673
1027,Clay,AL,33.272412,-85.820227
1029,Cleburne,AL,33.62977,-85.494315
1031,Coffee,AL,31.354433,-85.904715
1033,Colbert,AL,34.723385,-87.685151
1035,Conecuh,AL,31.418674,-86.996483
1037,Coosa,AL,32.975932,-86.155035
1039,Covington,AL,31.282449,-86.410955
1041,Crenshaw,AL,31.743487,-86.29708
1043,Cullman,AL,34.162362,-86.831859
1045,Dale,AL,31.383346,-85.641269
1047,Dallas,AL,32.408815,-87.034955
1049,DeKalb,AL,34.45511,-85.817208
1051,Elmore,AL,32.559652,-86.225647
1053,Escambia,AL,31.088737,-87.282053
1055,Etowah,AL,34.013693,-86.025393
1057,Fayette,AL,33.726422,-87.770355
1059,Franklin,AL,34.460481,-87.793594
1061,Geneva,AL,31.09426,-85.788849
1063,Greene,AL,32.830505,-87.924
1065,Hale,AL,32.775804,-87.626084
1067,Henry,AL,31.478593,-85.268828
1069,Houston,AL,31.20455,-85.391221
1071,Jackson,AL,34.731984,-85.938698
1073,Jefferson,AL,33.518601,-86.814688
1075,Lamar,AL,33.762769,-88.109649
1077,Lauderdale,AL,34.866179,-87.608759
1079,Lawrence,AL,34.543683,-87.272414
1081,Lee,AL,32.588092,-85.345833
1083,Limestone,AL,34.815612,-86.938972
1085,Lowndes,AL,32.162415,-86.618688
1087,Macon,AL,32.425739,-85.715007
1089,Madison,AL,34.746392,-86.613232
1091,Marengo,AL,32.340479,-87.800648
1093,Marion,AL,34.111797,-87.8743
1095,Marshall,AL,34.311974,-86.293279
1097,Mobile,AL,30.683993,-88.170637
1099,Monroe,AL,31.505611,-87.360894
1101,Montgomery,AL,32.346175,-86.243797
1103,Morgan,AL,34.514252,-86.930781
1105,Perry,AL,32.581066,-87.369219
1107,Pickens,AL,33.292973,-88.066472
1109,Pike,AL,31.787277,-85.948647
1111,Randolph,AL,33.257607,-85.427266
1113,Russell,AL,32.421972,-85.062843
1115,St Clair,AL,33.660628,-86.369107
1117,Shelby,AL,33.290719,-86.737978
1119,Sumter,AL,32.57442,-88.232646
1121,Talladega,AL,33.372083,-86.169238
1123,Tallapoosa,AL,32.85306,-85.864503
1125,Tuscaloosa,AL,33.214154,-87.520229
1127,Walker,AL,33.834858,-87.253922
1129,Washington,AL,31.410368,-88.18612
1131,Wilcox,AL,31.999753,-87.380407
1133,Winston,AL,34.163824,-87.415693
2013,Aleutians East,AK,54.860151,-162.901536
2016,Aleutians West,AK,54.023571,-168.292885
2020,Anchorage,AK,61.192232,-149.793182
2050,Bethel,AK,60.679946,-162.151263
2060,Bristol Bay,AK,58.735464,-156.834047
2068,Denali Borough,AK,63.882845,-149.032949
2070,Dillingham,AK,59.136256,-158.718472
2090,Fairbanks North Star,AK,64.831552,-147.624018
2100,Haines,AK,59.264125,-135.559897
2105,Hoonah-Angoon Census Area,AK,58.078282,-135.384163
2110,Juneau,AK,58.358516,-134.530605
2122,Kenai Peninsula,AK,60.292592,-151.064475
2130,Ketchikan Gateway,AK,55.367858,-131.678527
2150,Kodiak Island,AK,57.779137,-152.460881
2164,Lake And Peninsula,AK,58.557351,-156.371652
2170,Matanuska-Susitna,AK,61.611281,-149.421961
2180,Nome,AK,64.457026,-165.295491
2185,North Slope,AK,70.522779,-154.862085
2188,Northwest Arctic,AK,66.943735,-161.638185
2195,Petersburg Borough,AK,56.812712,-133.115025
2198,Prince of Wales-Hyder,AK,55.448164,-132.560842
2220,Sitka,AK,57.062746,-135.337171
2230,Skagway Municipality,AK,59.464536,-135.311501
2240,Southeast Fairbanks,AK,63.856185,-144.687024
2261,Valdez-Cordova,AK,61.26149,-145.882504
2275,Wrangell City,AK,56.385821,-132.310837
2282,Yakutat City,AK,59.547975,-139.724878
2290,Yukon-Koyukuk,AK,65.010262,-152.550423
4001,Apache,AZ,35.577687,-109.41484
4003,Cochise,AZ,31.607357,-110.063053
4005,Coconino,AZ,35.514426,-111.590056
4007,Gila,AZ,33.82356,-111.007494
4009,Graham,AZ,32.86733,-109.812181
4011,Greenlee,AZ,32.970402,-109.248712
4012,La Paz,AZ,33.908361,-114.172146
4013,Maricopa,AZ,33.493403,-112.04143
4015,Mohave,AZ,35.069679,-114.249634
4017,Navajo,AZ,34.893625,-110.211155
4019,Pima,AZ,32.216707,-110.96001
4021,Pinal,AZ,33.060133,-111.588364
4023,Santa Cruz,AZ,31.434733,-110.943195
4025,Yavapai,AZ,34.629014,-112.267767
4027,Yuma,AZ,32.65004,-114.598663
5001,Arkansas,AR,34.405316,-91.461284
5003,Ashley,AR,33.179373,-91.87136
5005,Baxter,AR,36.332208,-92.383933
5007,Benton,AR,36.337348,-94.230543
5009,Boone,AR,36.267871,-93.099344
5011,Bradley,AR,33.569321,-92.103312
5013,Calhoun,AR,33.591116,-92.495555
5015,Carroll,AR,36.373069,-93.570816
5017,Chicot,AR,33.32186,-91.318378
5019,Clark,AR,34.094705,-93.124856
5021,Clay,AR,36.370695,-90.372418
5023,Cleburne,AR,35.510232,-92.037481
5025,Cleveland,AR,33.914989,-92.139146
5027,Columbia,AR,33.258045,-93.247459
5029,Conway,AR,35.214487,-92.70416
5031,Craighead,AR,35.835235,-90.669325
5033,Crawford,AR,35.496882,-94.28436
5035,Crittenden,AR,35.17736,-90.217261
5037,Cross,AR,35.252833,-90.775307
5039,Dallas,AR,33.869213,-92.527123
5041,Desha,AR,33.773838,-91.417485
5043,Drew,AR,33.6274,-91.781779
5045,Faulkner,AR,35.104918,-92.405359
5047,Franklin,AR,35.446102,-93.885464
5049,Fulton,AR,36.376787,-91.764934
5051,Garland,AR,34.505811,-93.081852
5053,Grant,AR,34.309174,-92.412714
5055,Greene,AR,36.07312,-90.523016
5057,Hempstead,AR,33.699647,-93.623587
5059,Hot Spring,AR,34.353464,-92.894595
5061,Howard,AR,33.983198,-93.910184
5063,Independence,AR,35.749801,-91.607539
5065,Izard,AR,36.120217,-91.908429
5067,Jackson,AR,35.621102,-91.246233
5069,Jefferson,AR,34.233473,-92.041179
5071,Johnson,AR,35.475272,-93.475517
5073,Lafayette,AR,33.287629,-93.557538
5075,Lawrence,AR,36.070224,-91.065733
5077,Lee,AR,34.785214,-90.774516
5079,Lincoln,AR,33.975379,-91.746234
5081,Little River,AR,33.700518,-94.195995
5083,Logan,AR,35.227532,-93.768119
5085,Lonoke,AR,34.905178,-91.970577
5087,Madison,AR,36.061309,-93.755297
5089,Marion,AR,36.28457,-92.663368
5091,Miller,AR,33.400831,-93.987504
5093,Mississippi,AR,35.84288,-89.999037
5095,Monroe,AR,34.777729,-91.218021
5097,Montgomery,AR,34.517013,-93.622663
5099,Nevada,AR,33.722168,-93.358085
5101,Newton,AR,35.98494,-93.1705
5103,Ouachita,AR,33.574461,-92.838871
5105,Perry,AR,34.999054,-92.779271
5107,Phillips,AR,34.529768,-90.707796
5109,Pike,AR,34.187298,-93.624765
5111,Poinsett,AR,35.60191,-90.557998
5113,Polk,AR,34.52045,-94.258519
5115,Pope,AR,35.309776,-93.097238
5117,Prairie,AR,34.859177,-91.536241
5119,Pulaski,AR,34.773719,-92.311659
5121,Randolph,AR,36.304758,-90.98842
5123,St Francis,AR,35.015313,-90.770297
5125,Saline,AR,34.593233,-92.546163
5127,Scott,AR,34.907145,-94.095905
5129,Searcy,AR,35.922829,-92.659155
5131,Sebastian,AR,35.318195,-94.354435
5133,Sevier,AR,34.014236,-94.304091
5135,Sharp,AR,36.178493,-91.520168
5137,Stone,AR,35.856705,-92.137
5139,Union,AR,33.20687,-92.64508
5141,Van Buren,AR,35.567839,-92.421475
5143,Washington,AR,36.094275,-94.172222
5145,White,AR,35.243736,-91.767388
5147,Woodruff,AR,35.233191,-91.252079
5149,Yell,AR,35.120982,-93.28946
6001,Alameda,CA,37.705201,-122.100393
6003,Alpine,CA,38.728298,-119.847603
6005,Amador,CA,38.394208,-120.775729
6007,Butte,CA,39.669037,-121.707635
6009,Calaveras,CA,38.163627,-120.633718
6011,Colusa,CA,39.156148,-122.085557
6013,Contra Costa,CA,37.935588,-122.030131
6015,Del Norte,CA,41.791232,-124.163088
6017,El Dorado,CA,38.746543,-120.74433
6019,Fresno,CA,36.738918,-119.767884
6021,Glenn,CA,39.663418,-122.177491
6023,Humboldt,CA,40.752982,-124.087189
6025,Imperial,CA,32.841101,-115.534487
6027,Inyo,CA,37.160247,-118.267513
6029,Kern,CA,35.372968,-118.936004
6031,Kings,CA,36.242749,-119.729084
6033,Lake,CA,38.973362,-122.734609
6035,Lassen,CA,40.392397,-120.579176
6037,Los Angeles,CA,34.065193,-118.244222
6039,Madera,CA,37.043099,-120.00675
6041,Marin,CA,37.986705,-122.547075
6043,Mariposa,CA,37.542748,-119.957219
6045,Mendocino,CA,39.285329,-123.397227
6047,Merced,CA,37.281016,-120.623989
6049,Modoc,CA,41.522584,-120.650911
6051,Mono,CA,37.763322,-118.970594
6053,Monterey,CA,36.611722,-121.646162
6055,Napa,CA,38.329075,-122.321646
6057,Nevada,CA,39.219524,-120.916546
6059,Orange,CA,33.733953,-117.86288
6061,Placer,CA,38.844511,-121.182466
6063,Plumas,CA,39.983857,-120.825847
6065,Riverside,CA,33.800439,-117.066205
6067,Sacramento,CA,38.56895,-121.380861
6069,San Benito,CA,36.843404,-121.403859
6071,San Bernardino,CA,34.190248,-117.357474
6073,San Diego,CA,32.88326,-117.112994
6075,San Francisco,CA,37.759598,-122.438323
6077,San Joaquin,CA,37.931804,-121.298108
6079,San Luis Obispo,CA,35.342391,-120.667689
6081,San Mateo,CA,37.56395,-122.340991
6083,Santa Barbara,CA,34.639262,-120.092602
6085,Santa Clara,CA,37.315105,-121.910421
6087,Santa Cruz,CA,36.985171,-121.936728
6089,Shasta,CA,40.580269,-122.299961
6091,Sierra,CA,39.612588,-120.414236
6093,Siskiyou,CA,41.576203,-122.489833
6095,Solano,CA,38.235582,-122.069324
6097,Sonoma,CA,38.41408,-122.720522
6099,Stanislaus,CA,37.619147,-120.955577
6101,Sutter,CA,39.13549,-121.644269
6103,Tehama,CA,40.115187,-122.218704
6105,Trinity,CA,40.681268,-123.072357
6107,Tulare,CA,36.251227,-119.231547
6109,Tuolumne,CA,37.971531,-120.32853
6111,Ventura,CA,34.241989,-119.025018
6113,Yolo,CA,38.598913,-121.721112
6115,Yuba,CA,39.13883,-121.506626
8001,Adams,CO,39.874297,-104.927473
8003,Alamosa,CO,37.483069,-105.877245
8005,Arapahoe,CO,39.647528,-104.845968
8007,Archuleta,CO,37.240087,-107.085027
8009,Baca,CO,37.368221,-102.527089
8011,Bent,CO,38.072386,-103.1631
8013,Boulder,CO,40.063299,-105.183981
8014,Broomfield,CO,39.936888,-105.055491
8015,Chaffee,CO,38.676497,-106.082645
8017,Cheyenne,CO,38.816795,-102.45777
8019,Clear Creek,CO,39.712957,-105.52965
8021,Conejos,CO,37.195652,-105.989049
8023,Costilla,CO,37.281779,-105.448477
8025,Crowley,CO,38.188547,-103.857439
8027,Custer,CO,38.134216,-105.381557
8029,Delta,CO,38.798565,-107.910553
8031,Denver,CO,39.72143,-104.955068
8033,Dolores,CO,37.740817,-108.75741
8035,Douglas,CO,39.48527,-104.879712
8037,Eagle,CO,39.599453,-106.717771
8039,Elbert,CO,39.382868,-104.51913
8041,El Paso,CO,38.873669,-104.758477
8043,Fremont,CO,38.426058,-105.206532
8045,Garfield,CO,39.507561,-107.539356
8047,Gilpin,CO,39.85702,-105.48021
8049,Grand,CO,40.050388,-105.9754
8051,Gunnison,CO,38.657886,-106.944723
8053,Hinsdale,CO,37.996875,-107.29653
8055,Huerfano,CO,37.616312,-104.884201
8057,Jackson,CO,40.692851,-106.291292
8059,Jefferson,CO,39.720524,-105.128819
8061,Kiowa,CO,38.470657,-102.680579
8063,Kit Carson,CO,39.309763,-102.435733
8065,Lake,CO,39.24587,-106.308061
8067,La Plata,CO,37.265198,-107.806184
8069,Larimer,CO,40.504546,-105.099218
8071,Las Animas,CO,37.196601,-104.503149
8073,Lincoln,CO,39.173232,-103.613697
8075,Logan,CO,40.639399,-103.187715
8077,Mesa,CO,39.092851,-108.543768
8079,Mineral,CO,37.798623,-106.935586
8081,Moffat,CO,40.515239,-107.625859
8083,Montezuma,CO,37.370817,-108.557116
8085,Montrose,CO,38.479142,-107.934568
8087,Morgan,CO,40.256023,-103.781517
8089,Otero,CO,38.024096,-103.657432
8091,Ouray,CO,38.139834,-107.746232
8093,Park,CO,39.311718,-105.623144
8095,Phillips,CO,40.599517,-102.387354
8097,Pitkin,CO,39.232543,-106.907765
8099,Prowers,CO,38.083772,-102.547035
8101,Pueblo,CO,38.263685,-104.645147
8103,Rio Blanco,CO,40.051033,-108.280174
8105,Rio Grande,CO,37.616658,-106.238805
8107,Routt,CO,40.453133,-106.899535
8109,Saguache,CO,37.915302,-106.019489
8111,San Juan,CO,37.804646,-107.673989
8113,San Miguel,CO,37.974202,-107.960034
8115,Sedgwick,CO,40.960246,-102.32767
8117,Summit,CO,39.573131,-106.054579
8119,Teller,CO,38.94355,-105.140532
8121,Washington,CO,40.092526,-103.156814
8123,Weld,CO,40.328082,-104.788507
8125,Yuma,CO,40.069473,-102.486935
9001,Fairfield,CT,41.207889,-73.364521
9003,Hartford,CT,41.761943,-72.717282
9005,Litchfield,CT,41.727851,-73.187494
9007,Middlesex,CT,41.478564,-72.571408
9009,New Haven,CT,41.396052,-72.941497
9011,New London,CT,41.443373,-72.097683
9013,Tolland,CT,41.842762,-72.37209
9015,Windham,CT,41.804225,-71.995072
10001,Kent,DE,39.12322,-75.558604
10003,New Castle,DE,39.68502,-75.634376
10005,Sussex,DE,38.662387,-75.346649
11001,District Of Columbia,DC,38.91027,-77.014468
12001,Alachua,FL,29.665903,-82.386845
12003,Baker,FL,30.288432,-82.185477
12005,Bay,FL,30.206925,-85.660217
12007,Bradford,FL,29.953429,-82.128192
12009,Brevard,FL,28.232195,-80.690979
12011,Broward,FL,26.134058,-80.227135
12013,Calhoun,FL,30.463143,-85.122189
12015,Charlotte,FL,26.954793,-82.119946
12017,Citrus,FL,28.863598,-82.453512
12019,Clay,FL,30.084386,-81.79941
12021,Collier,FL,26.199831,-81.699625
12023,Columbia,FL,30.126051,-82.660566
12027,Desoto,FL,27.189369,-81.864094
12029,Dixie,FL,29.634179,-83.056329
12031,Duval,FL,30.300302,-81.622853
12033,Escambia,FL,30.485314,-87.274788
12035,Flagler,FL,29.523494,-81.224735
12037,Franklin,FL,29.786787,-84.822838
12039,Gadsden,FL,30.59828,-84.581397
12041,Gilchrist,FL,29.704639,-82.808262
12043,Glades,FL,26.896029,-81.185404
12045,Gulf,FL,29.988579,-85.259478
12047,Hamilton,FL,30.501534,-82.997218
12049,Hardee,FL,27.548312,-81.815432
12051,Hendry,FL,26.705392,-81.202571
12053,Hernando,FL,28.50485,-82.496961
12055,Highlands,FL,27.460415,-81.442555
12057,Hillsborough,FL,27.976529,-82.401275
12059,Holmes,FL,30.847684,-85.758558
12061,Indian River,FL,27.671827,-80.440581
12063,Jackson,FL,30.80024,-85.216119
12065,Jefferson,FL,30.504031,-83.886291
12067,Lafayette,FL,30.065418,-83.179508
12069,Lake,FL,28.735689,-81.752026
12071,Lee,FL,26.574992,-81.858144
12073,Leon,FL,30.466103,-84.270371
12075,Levy,FL,29.379995,-82.666319
12077,Liberty,FL,30.399795,-84.905169
12079,Madison,FL,30.47263,-83.430563
12081,Manatee,FL,27.477054,-82.532775
12083,Marion,FL,29.140116,-82.123367
12085,Martin,FL,27.1443,-80.244395
12086,Miami-Dade,FL,25.774565,-80.298888
12087,Monroe,FL,24.739678,-81.263945
12089,Nassau,FL,30.607962,-81.647153
12091,Okaloosa,FL,30.542829,-86.567105
12093,Okeechobee,FL,27.272057,-80.822153
12095,Orange,FL,28.532855,-81.384377
12097,Osceola,FL,28.266765,-81.383484
12099,Palm Beach,FL,26.617075,-80.146119
12101,Pasco,FL,28.261606,-82.51608
12103,Pinellas,FL,27.899794,-82.727651
12105,Polk,FL,28.03114,-81.799975
12107,Putnam,FL,29.609299,-81.720431
12109,St Johns,FL,29.977088,-81.421504
12111,St Lucie,FL,27.338067,-80.353183
12113,Santa Rosa,FL,30.549593,-87.036954
12115,Sarasota,FL,27.208205,-82.423893
12117,Seminole,FL,28.697834,-81.310445
12119,Sumter,FL,28.825768,-82.035469
12121,Suwannee,FL,30.214688,-82.987546
12123,Taylor,FL,30.064881,-83.597967
12125,Union,FL,30.010768,-82.356919
12127,Volusia,FL,29.073725,-81.123944
12129,Wakulla,FL,30.185525,-84.331546
12131,Walton,FL,30.583729,-86.190665
12133,Washington,FL,30.650718,-85.625419
13001,Appling,GA,31.77388,-82.338473
13003,Atkinson,GA,31.317301,-82.886363
13005,Bacon,GA,31.547221,-82.466071
13007,Baker,GA,31.307754,-84.437989
13009,Baldwin,GA,33.084849,-83.245659
13011,Banks,GA,34.351255,-83.506647
13013,Barrow,GA,33.993054,-83.7275
13015,Bartow,GA,34.208435,-84.829122
13017,Ben Hill,GA,31.727638,-83.248636
13019,Berrien,GA,31.238588,-83.252459
13021,Bibb,GA,32.832049,-83.687184
13023,Bleckley,GA,32.401368,-83.33214
13025,Brantley,GA,31.216648,-81.96997
13027,Brooks,GA,30.842082,-83.54009
13029,Bryan,GA,31.979537,-81.375954
13031,Bulloch,GA,32.417702,-81.76242
13033,Burke,GA,33.101987,-81.998447
13035,Butts,GA,33.296102,-83.970002
13037,Calhoun,GA,31.527412,-84.668445
13039,Camden,GA,30.814165,-81.635079
13043,Candler,GA,32.399861,-82.062305
13045,Carroll,GA,33.622193,-85.044673
13047,Catoosa,GA,34.927795,-85.17282
13049,Charlton,GA,30.780002,-82.023033
13051,Chatham,GA,32.036008,-81.126449
13053,Chattahoochee,GA,32.344231,-84.899254
13055,Chattooga,GA,34.495509,-85.344167
13057,Cherokee,GA,34.169606,-84.496595
13059,Clarke,GA,33.950406,-83.380863
13061,Clay,GA,31.633549,-85.013368
13063,Clayton,GA,33.553383,-84.362238
13065,Clinch,GA,31.017888,-82.740932
13067,Cobb,GA,33.943254,-84.557878
13069,Coffee,GA,31.516,-82.840667
13071,Colquitt,GA,31.180955,-83.768671
13073,Columbia,GA,33.51622,-82.165654
13075,Cook,GA,31.149847,-83.424499
13077,Coweta,GA,33.379117,-84.736399
13079,Crawford,GA,32.707681,-83.934002
13081,Crisp,GA,31.947962,-83.777791
13083,Dade,GA,34.882709,-85.497004
13085,Dawson,GA,34.40138,-84.104119
13087,Decatur,GA,30.888345,-84.57036
13089,DeKalb,GA,33.789813,-84.248029
13091,Dodge,GA,32.212815,-83.175591
13093,Dooly,GA,32.16758,-83.784195
13095,Dougherty,GA,31.573426,-84.167625
13097,Douglas,GA,33.724923,-84.734644
13099,Early,GA,31.331726,-84.916722
13101,Echols,GA,30.708629,-83.057989
13103,Effingham,GA,32.291745,-81.299511
13105,Elbert,GA,34.126521,-82.879523
13107,Emanuel,GA,32.58586,-82.307952
13109,Evans,GA,32.169649,-81.907367
13111,Fannin,GA,34.901383,-84.313402
13113,Fayette,GA,33.427941,-84.512414
13115,Floyd,GA,34.255796,-85.183164
13117,Forsyth,GA,34.19492,-84.144322
13119,Franklin,GA,34.377335,-83.186079
13121,Fulton,GA,33.836086,-84.393645
13123,Gilmer,GA,34.677249,-84.483646
13125,Glascock,GA,33.235927,-82.609847
13127,Glynn,GA,31.202698,-81.486488
13129,Gordon,GA,34.498326,-84.908795
13131,Grady,GA,30.882764,-84.214288
13133,Greene,GA,33.549876,-83.166093
13135,Gwinnett,GA,33.951956,-84.057963
13137,Habersham,GA,34.56516,-83.541626
13139,Hall,GA,34.275205,-83.844712
13141,Hancock,GA,33.255825,-83.002047
13143,Haralson,GA,33.76192,-85.18547
13145,Harris,GA,32.699933,-84.895034
13147,Hart,GA,34.355413,-82.964953
13149,Heard,GA,33.309334,-85.1134
13151,Henry,GA,33.475842,-84.175416
13153,Houston,GA,32.571603,-83.663357
13155,Irwin,GA,31.604647,-83.280834
13157,Jackson,GA,34.132059,-83.584805
13159,Jasper,GA,33.356251,-83.724341
13161,Jeff Davis,GA,31.848776,-82.600696
13163,Jefferson,GA,33.063551,-82.407657
13165,Jenkins,GA,32.794618,-81.950133
13167,Johnson,GA,32.701199,-82.679535
13169,Jones,GA,32.962134,-83.54514
13171,Lamar,GA,33.08002,-84.1544
13173,Lanier,GA,31.035393,-83.090886
13175,Laurens,GA,32.516487,-82.926131
13177,Lee,GA,31.681194,-84.173396
13179,Liberty,GA,31.827766,-81.578482
13181,Lincoln,GA,33.781126,-82.44638
13183,Long,GA,31.778807,-81.733663
13185,Lowndes,GA,30.857006,-83.280221
13187,Lumpkin,GA,34.524951,-83.986879
13189,McDuffie,GA,33.459617,-82.469866
13191,McIntosh,GA,31.47526,-81.407579
13193,Macon,GA,32.325042,-84.038814
13195,Madison,GA,34.104614,-83.24068
13197,Marion,GA,32.380907,-84.523557
13199,Meriwether,GA,33.008863,-84.672846
13201,Miller,GA,31.159722,-84.737198
13205,Mitchell,GA,31.216853,-84.172094
13207,Monroe,GA,33.038194,-83.906823
13209,Montgomery,GA,32.167319,-82.533261
13211,Morgan,GA,33.600243,-83.485957
13213,Murray,GA,34.782329,-84.792066
13215,Muscogee,GA,32.492289,-84.930634
13217,Newton,GA,33.56952,-83.896609
13219,Oconee,GA,33.875278,-83.457946
13221,Oglethorpe,GA,33.916594,-83.14492
13223,Paulding,GA,33.905688,-84.816609
13225,Peach,GA,32.584826,-83.82958
13227,Pickens,GA,34.455892,-84.442301
13229,Pierce,GA,31.314668,-82.240429
13231,Pike,GA,33.103227,-84.366796
13233,Polk,GA,34.010878,-85.176771
13235,Pulaski,GA,32.275344,-83.480342
13237,Putnam,GA,33.317059,-83.339663
13239,Quitman,GA,31.859377,-85.077727
13241,Rabun,GA,34.87903,-83.407223
13243,Randolph,GA,31.760403,-84.758026
13245,Richmond,GA,33.426859,-82.049444
13247,Rockdale,GA,33.642043,-84.020894
13249,Schley,GA,32.241549,-84.306781
13251,Screven,GA,32.722842,-81.627328
13253,Seminole,GA,30.972496,-84.868027
13255,Spalding,GA,33.258051,-84.273339
13257,Stephens,GA,34.556904,-83.288681
13259,Stewart,GA,32.069335,-84.764519
13261,Sumter,GA,32.059981,-84.221818
13263,Talbot,GA,32.703124,-84.582116
13265,Taliaferro,GA,33.5688,-82.88576
13267,Tattnall,GA,32.043908,-82.052217
13269,Taylor,GA,32.560542,-84.215083
13271,Telfair,GA,32.01562,-82.892471
13273,Terrell,GA,31.772157,-84.42886
13275,Thomas,GA,30.868962,-83.948411
13277,Tift,GA,31.454362,-83.515048
13279,Toombs,GA,32.183936,-82.367022
13281,Towns,GA,34.938692,-83.782961
13283,Treutlen,GA,32.387047,-82.589718
13285,Troup,GA,33.036737,-85.031746
13287,Turner,GA,31.700824,-83.636891
13289,Twiggs,GA,32.703662,-83.416286
13291,Union,GA,34.874243,-84.002286
13293,Upson,GA,32.907469,-84.324382
13295,Walker,GA,34.83654,-85.293376
13297,Walton,GA,33.795381,-83.784266
13299,Ware,GA,31.22682,-82.383943
13301,Warren,GA,33.407596,-82.662844
13303,Washington,GA,32.962029,-82.773406
13305,Wayne,GA,31.611857,-81.919105
13307,Webster,GA,32.049343,-84.560657
13309,Wheeler,GA,32.146558,-82.751307
13311,White,GA,34.601048,-83.744309
13313,Whitfield,GA,34.792742,-84.965686
13315,Wilcox,GA,31.975167,-83.405657
13317,Wilkes,GA,33.755364,-82.753524
13319,Wilkinson,GA,32.8443,-83.239491
13321,Worth,GA,31.535712,-83.861186
15001,Hawaii,HI,19.672837,-155.421895
15003,Honolulu,HI,21.372464,-157.913673
15005,Kalawao,HI,21.188495,-156.979972
15007,Kauai,HI,22.021022,-159.442112
15009,Maui,HI,20.863747,-156.493816
16001,Ada,ID,43.611186,-116.304409
16003,Adams,ID,44.848619,-116.375947
16005,Bannock,ID,42.869212,-112.423672
16007,Bear Lake,ID,42.306336,-111.341632
16009,Benewah,ID,47.271692,-116.639736
16011,Bingham,ID,43.217372,-112.355721
16013,Blaine,ID,43.541366,-114.294277
16015,Boise,ID,43.899702,-115.993695
16017,Bonner,ID,48.235649,-116.630982
16019,Bonneville,ID,43.494876,-111.997623
16021,Boundary,ID,48.705964,-116.302851
16023,Butte,ID,43.699097,-113.294562
16025,Camas,ID,43.350524,-114.756451
16027,Canyon,ID,43.611438,-116.627276
16029,Caribou,ID,42.643778,-111.656063
16031,Cassia,ID,42.482791,-113.741833
16033,Clark,ID,44.185815,-112.278608
16035,Clearwater,ID,46.48524,-116.185221
16037,Custer,ID,44.285168,-114.048035
16039,Elmore,ID,43.11532,-115.684407
16041,Franklin,ID,42.0993,-111.872202
16043,Fremont,ID,44.014844,-111.615464
16045,Gem,ID,43.884323,-116.506739
16047,Gooding,ID,42.852717,-114.751067
16049,Idaho,ID,45.974127,-116.106566
16051,Jefferson,ID,43.691123,-111.969394
16053,Jerome,ID,42.698447,-114.462669
16055,Kootenai,ID,47.73713,-116.832581
16057,Latah,ID,46.742968,-116.934434
16059,Lemhi,ID,45.127412,-113.86153
16061,Lewis,ID,46.238066,-116.25739
16063,Lincoln,ID,42.973467,-114.326069
16065,Madison,ID,43.819114,-111.794073
16067,Minidoka,ID,42.613266,-113.712227
16069,Nez Perce,ID,46.394126,-116.950462
16071,Oneida,ID,42.181568,-112.301274
16073,Owyhee,ID,43.376748,-116.681558
16075,Payette,ID,44.020334,-116.894281
16077,Power,ID,42.775001,-112.829004
16079,Shoshone,ID,47.514637,-116.085925
16081,Teton,ID,43.692977,-111.125546
16083,Twin Falls,ID,42.558563,-114.504002
16085,Valley,ID,44.758677,-116.073719
16087,Washington,ID,44.297898,-116.919922
17001,Adams,IL,39.943826,-91.328948
17003,Alexander,IL,37.149251,-89.289666
17005,Bond,IL,38.884622,-89.432819
17007,Boone,IL,42.293981,-88.851989
17009,Brown,IL,39.964815,-90.746466
17011,Bureau,IL,41.382964,-89.42378
17013,Calhoun,IL,39.12353,-90.63801
17015,Carroll,IL,42.071879,-89.963255
17017,Cass,IL,39.979866,-90.319209
17019,Champaign,IL,40.128073,-88.233083
17021,Christian,IL,39.525298,-89.254627
17023,Clark,IL,39.351007,-87.800246
17025,Clay,IL,38.716132,-88.490134
17027,Clinton,IL,38.587753,-89.472099
17029,Coles,IL,39.487297,-88.258277
17031,Cook,IL,41.865937,-87.757714
17033,Crawford,IL,39.00569,-87.748024
17035,Cumberland,IL,39.275965,-88.280887
17037,DeKalb,IL,41.927172,-88.72946
17039,De Witt,IL,40.171701,-88.908946
17041,Douglas,IL,39.766826,-88.279794
17043,Dupage,IL,41.849815,-88.071617
17045,Edgar,IL,39.635942,-87.71537
17047,Edwards,IL,38.402493,-88.04063
17049,Effingham,IL,39.094723,-88.576033
17051,Fayette,IL,38.997829,-89.033295
17053,Ford,IL,40.527422,-88.217453
17055,Franklin,IL,37.962135,-88.953316
17057,Fulton,IL,40.521963,-90.119357
17059,Gallatin,IL,37.770001,-88.238563
17061,Greene,IL,39.37224,-90.373465
17063,Grundy,IL,41.345274,-88.347437
17065,Hamilton,IL,38.092156,-88.557747
17067,Hancock,IL,40.425725,-91.203133
17069,Hardin,IL,37.478453,-88.290573
17071,Henderson,IL,40.828841,-90.9448
17073,Henry,IL,41.348782,-90.134757
17075,Iroquois,IL,40.763597,-87.834391
17077,Jackson,IL,37.747793,-89.274031
17079,Jasper,IL,39.003765,-88.159885
17081,Jefferson,IL,38.308488,-88.910808
17083,Jersey,IL,39.072862,-90.32042
17085,Jo Daviess,IL,42.411324,-90.305944
17087,Johnson,IL,37.474558,-88.882358
17089,Kane,IL,41.918111,-88.331264
17091,Kankakee,IL,41.148582,-87.850867
17093,Kendall,IL,41.663724,-88.379066
17095,Knox,IL,40.937032,-90.328601
17097,Lake,IL,42.313072,-87.969458
17099,La Salle,IL,41.350798,-88.895997
17101,Lawrence,IL,38.718291,-87.748328
17103,Lee,IL,41.810242,-89.398207
17105,Livingston,IL,40.907044,-88.573187
17107,Logan,IL,40.140775,-89.361505
17109,McDonough,IL,40.469472,-90.669344
17111,McHenry,IL,42.271472,-88.34988
17113,McLean,IL,40.494123,-88.954977
17115,Macon,IL,39.851176,-88.947076
17117,Macoupin,IL,39.19403,-89.877035
17119,Madison,IL,38.801396,-90.018097
17121,Marion,IL,38.59071,-89.016967
17123,Marshall,IL,41.043034,-89.315638
17125,Mason,IL,40.286475,-89.898924
17127,Massac,IL,37.178592,-88.714109
17129,Menard,IL,39.99726,-89.799507
17131,Mercer,IL,41.214043,-90.687167
17133,Monroe,IL,38.358529,-90.171163
17135,Montgomery,IL,39.198961,-89.505319
17137,Morgan,IL,39.718155,-90.231161
17139,Moultrie,IL,39.631979,-88.614419
17141,Ogle,IL,42.028653,-89.256098
17143,Peoria,IL,40.742915,-89.638993
17145,Perry,IL,38.058514,-89.323862
17147,Piatt,IL,40.007008,-88.581585
17149,Pike,IL,39.621311,-90.859127
17151,Pope,IL,37.39893,-88.54991
17153,Pulaski,IL,37.199543,-89.13475
17155,Putnam,IL,41.229306,-89.270945
17157,Randolph,IL,38.055541,-89.809249
17159,Richland,IL,38.725943,-88.088315
17161,Rock Island,IL,41.489142,-90.504005
17163,St Clair,IL,38.550219,-90.000674
17165,Saline,IL,37.754786,-88.536395
17167,Sangamon,IL,39.772757,-89.652867
17169,Schuyler,IL,40.13118,-90.568639
17171,Scott,IL,39.645737,-90.462754
17173,Shelby,IL,39.396539,-88.802073
17175,Stark,IL,41.098377,-89.792451
17177,Stephenson,IL,42.324139,-89.644541
17179,Tazewell,IL,40.602899,-89.534104
17181,Union,IL,37.46858,-89.236505
17183,Vermilion,IL,40.149683,-87.654806
17185,Wabash,IL,38.431283,-87.789625
17187,Warren,IL,40.890638,-90.636371
17189,Washington,IL,38.359407,-89.39393
17191,Wayne,IL,38.406869,-88.422496
17193,White,IL,38.089959,-88.192241
17195,Whiteside,IL,41.780798,-89.823253
17197,Will,IL,41.565138,-88.057232
17199,Williamson,IL,37.755675,-88.974979
17201,Winnebago,IL,42.307128,-89.06224
17203,Woodford,IL,40.771239,-89.29031
18001,Adams,IN,40.753767,-84.934317
18003,Allen,IN,41.098642,-85.122329
18005,Bartholomew,IN,39.216785,-85.902794
18007,Benton,IN,40.575066,-87.291433
18009,Blackford,IN,40.469726,-85.34419
18011,Boone,IN,40.013009,-86.398737
18013,Brown,IN,39.236241,-86.20969
18015,Carroll,IN,40.578983,-86.600098
18017,Cass,IN,40.747104,-86.339592
18019,Clark,IN,38.371546,-85.732035
18021,Clay,IN,39.469066,-87.124217
18023,Clinton,IN,40.298201,-86.512307
18025,Crawford,IN,38.313435,-86.423444
18027,Daviess,IN,38.696963,-87.098076
18029,Dearborn,IN,39.14462,-84.920935
18031,Decatur,IN,39.319975,-85.494211
18033,DeKalb,IN,41.378214,-85.034285
18035,Delaware,IN,40.20517,-85.401962
18037,Dubois,IN,38.357067,-86.914032
18039,Elkhart,IN,41.637679,-85.906728
18041,Fayette,IN,39.640791,-85.147496
18043,Floyd,IN,38.321514,-85.855645
18045,Fountain,IN,40.152089,-87.271946
18047,Franklin,IN,39.401885,-85.070265
18049,Fulton,IN,41.059389,-86.220078
18051,Gibson,IN,38.30918,-87.546685
18053,Grant,IN,40.525253,-85.644413
18055,Greene,IN,39.052316,-86.992172
18057,Hamilton,IN,40.002534,-86.059737
18059,Hancock,IN,39.811662,-85.824125
18061,Harrison,IN,38.233745,-86.097474
18063,Hendricks,IN,39.772784,-86.415055
18065,Henry,IN,39.928644,-85.403678
18067,Howard,IN,40.470704,-86.132959
18069,Huntington,IN,40.870224,-85.487085
18071,Jackson,IN,38.925896,-85.942654
18073,Jasper,IN,41.075783,-87.149436
18075,Jay,IN,40.428424,-85.033025
18077,Jefferson,IN,38.758956,-85.433692
18079,Jennings,IN,39.005169,-85.648821
18081,Johnson,IN,39.553276,-86.113609
18083,Knox,IN,38.698623,-87.45768
18085,Kosciusko,IN,41.266796,-85.830484
18087,Lagrange,IN,41.6324,-85.46117
18089,Lake,IN,41.526226,-87.408155
18091,LaPorte,IN,41.631837,-86.790977
18093,Lawrence,IN,38.846386,-86.495718
18095,Madison,IN,40.11412,-85.708901
18097,Marion,IN,39.791299,-86.135905
18099,Marshall,IN,41.347248,-86.273082
18101,Martin,IN,38.678357,-86.848113
18103,Miami,IN,40.730651,-86.073933
18105,Monroe,IN,39.162879,-86.537697
18107,Montgomery,IN,40.03511,-86.90006
18109,Morgan,IN,39.512251,-86.399318
18111,Newton,IN,40.994087,-87.380385
18113,Noble,IN,41.413892,-85.391205
18115,Ohio,IN,38.954549,-84.911295
18117,Orange,IN,38.562156,-86.496982
18119,Owen,IN,39.315596,-86.799822
18121,Parke,IN,39.758327,-87.227997
18123,Perry,IN,38.009327,-86.705205
18125,Pike,IN,38.424833,-87.233923
18127,Porter,IN,41.513679,-87.105308
18129,Posey,IN,38.013245,-87.823041
18131,Pulaski,IN,41.050592,-86.685266
18133,Putnam,IN,39.646107,-86.835611
18135,Randolph,IN,40.168573,-84.997064
18137,Ripley,IN,39.159402,-85.218379
18139,Rush,IN,39.623616,-85.474569
18141,St Joseph,IN,41.6754,-86.228686
18143,Scott,IN,38.698198,-85.762718
18145,Shelby,IN,39.536039,-85.789825
18147,Spencer,IN,38.015495,-87.011149
18149,Starke,IN,41.282896,-86.631962
18151,Steuben,IN,41.649521,-85.010662
18153,Sullivan,IN,39.103093,-87.390988
18155,Switzerland,IN,38.819835,-85.023499
18157,Tippecanoe,IN,40.41788,-86.886971
18159,Tipton,IN,40.308849,-86.050587
18161,Union,IN,39.618626,-84.919102
18163,Vanderburgh,IN,37.996062,-87.551819
18165,Vermillion,IN,39.763164,-87.440231
18167,Vigo,IN,39.460817,-87.387985
18169,Wabash,IN,40.858522,-85.802372
18171,Warren,IN,40.312186,-87.326289
18173,Warrick,IN,38.012884,-87.352574
18175,Washington,IN,38.572886,-86.086677
18177,Wayne,IN,39.842737,-84.949811
18179,Wells,IN,40.770771,-85.194412
18181,White,IN,40.755698,-86.810306
18183,Whitley,IN,41.163144,-85.47848
19001,Adair,IA,41.344629,-94.479157
19003,Adams,IA,41.006693,-94.709635
19005,Allamakee,IA,43.25705,-91.417115
19007,Appanoose,IA,40.739836,-92.867034
19009,Audubon,IA,41.676829,-94.925302
19011,Benton,IA,42.06222,-92.017478
19013,Black Hawk,IA,42.490851,-92.370013
19015,Boone,IA,42.026494,-93.895155
19017,Bremer,IA,42.743058,-92.376967
19019,Buchanan,IA,42.486957,-91.901041
19021,Buena Vista,IA,42.679153,-95.181444
19023,Butler,IA,42.707538,-92.758692
19025,Calhoun,IA,42.400162,-94.625331
19027,Carroll,IA,42.038571,-94.867634
19029,Cass,IA,41.365898,-94.979466
19031,Cedar,IA,41.757883,-91.137388
19033,Cerro Gordo,IA,43.135116,-93.246222
19035,Cherokee,IA,42.749288,-95.593937
19037,Chickasaw,IA,43.038059,-92.344319
19039,Clarke,IA,41.036835,-93.78126
19041,Clay,IA,43.127315,-95.159571
19043,Clayton,IA,42.860097,-91.322919
19045,Clinton,IA,41.852707,-90.335737
19047,Crawford,IA,42.027366,-95.358454
19049,Dallas,IA,41.645223,-93.923368
19051,Davis,IA,40.765097,-92.415821
19053,Decatur,IA,40.71001,-93.821366
19055,Delaware,IA,42.482434,-91.383342
19057,Des Moines,IA,40.833525,-91.141489
19059,Dickinson,IA,43.389624,-95.133548
19061,Dubuque,IA,42.493726,-90.759915
19063,Emmet,IA,43.394425,-94.75499
19065,Fayette,IA,42.820385,-91.855375
19067,Floyd,IA,43.074625,-92.75233
19069,Franklin,IA,42.755202,-93.240318
19071,Fremont,IA,40.747942,-95.623322
19073,Greene,IA,42.029792,-94.375962
19075,Grundy,IA,42.380262,-92.748284
19077,Guthrie,IA,41.669446,-94.431251
19079,Hamilton,IA,42.407552,-93.766985
19081,Hancock,IA,43.092013,-93.705072
19083,Hardin,IA,42.436775,-93.215799
19085,Harrison,IA,41.662391,-95.807433
19087,Henry,IA,40.981343,-91.537058
19089,Howard,IA,43.361616,-92.231027
19091,Humboldt,IA,42.74679,-94.215551
19093,Ida,IA,42.391343,-95.504381
19095,Iowa,IA,41.702615,-92.039923
19097,Jackson,IA,42.139283,-90.566782
19099,Jasper,IA,41.678374,-93.070038
19101,Jefferson,IA,41.013171,-91.964603
19103,Johnson,IA,41.679755,-91.55831
19105,Jones,IA,42.136467,-91.198513
19107,Keokuk,IA,41.325439,-92.17499
19109,Kossuth,IA,43.147016,-94.22057
19111,Lee,IA,40.55857,-91.396226
19113,Linn,IA,42.009607,-91.647251
19115,Louisa,IA,41.22579,-91.259929
19117,Lucas,IA,41.021148,-93.313045
19119,Lyon,IA,43.385265,-96.218544
19121,Madison,IA,41.347064,-93.989405
19123,Mahaska,IA,41.31208,-92.641016
19125,Marion,IA,41.35483,-93.04269
19127,Marshall,IA,42.031353,-92.938421
19129,Mills,IA,41.04967,-95.695267
19131,Mitchell,IA,43.336257,-92.803247
19133,Monona,IA,42.063026,-95.985135
19135,Monroe,IA,41.035615,-92.827682
19137,Montgomery,IA,41.008619,-95.167995
19139,Muscatine,IA,41.464065,-91.078997
19141,O Brien,IA,43.126413,-95.690881
19143,Osceola,IA,43.38638,-95.680373
19145,Page,IA,40.747616,-95.188476
19147,Palo Alto,IA,43.099878,-94.690212
19149,Plymouth,IA,42.747907,-96.203431
19151,Pocahontas,IA,42.745402,-94.700868
19153,Polk,IA,41.623296,-93.641654
19155,Pottawattamie,IA,41.278533,-95.79515
19157,Poweshiek,IA,41.709953,-92.620663
19159,Ringgold,IA,40.733763,-94.23852
19161,Sac,IA,42.375805,-95.088801
19163,Scott,IA,41.563153,-90.567812
19165,Shelby,IA,41.665153,-95.320336
19167,Sioux,IA,43.079825,-96.16727
19169,Story,IA,42.026371,-93.601827
19171,Tama,IA,42.065599,-92.542587
19173,Taylor,IA,40.755364,-94.673438
19175,Union,IA,41.053083,-94.318925
19177,Van Buren,IA,40.745557,-91.939134
19179,Wapello,IA,41.016218,-92.418385
19181,Warren,IA,41.400885,-93.588243
19183,Washington,IA,41.361978,-91.695465
19185,Wayne,IA,40.740054,-93.312926
19187,Webster,IA,42.480374,-94.179066
19189,Winnebago,IA,43.34288,-93.667031
19191,Winneshiek,IA,43.281284,-91.814375
19193,Woodbury,IA,42.483225,-96.344174
19195,Worth,IA,43.36654,-93.252258
19197,Wright,IA,42.732195,-93.755488
20001,Allen,KS,37.896584,-95.367053
20003,Anderson,KS,38.250112,-95.264386
20005,Atchison,KS,39.555583,-95.181488
20007,Barber,KS,37.212182,-98.557384
20009,Barton,KS,38.394738,-98.757739
20011,Bourbon,KS,37.845557,-94.749443
20013,Brown,KS,39.801273,-95.550384
20015,Butler,KS,37.727135,-96.989771
20017,Chase,KS,38.358336,-96.559378
20019,Chautauqua,KS,37.111002,-96.231466
20021,Cherokee,KS,37.115229,-94.755079
20023,Cheyenne,KS,39.768136,-101.738994
20025,Clark,KS,37.290453,-99.873033
20027,Clay,KS,39.356195,-97.12257
20029,Cloud,KS,39.53395,-97.637247
20031,Coffey,KS,38.247657,-95.739982
20033,Comanche,KS,37.23627,-99.365215
20035,Cowley,KS,37.174285,-96.997786
20037,Crawford,KS,37.439934,-94.731394
20039,Decatur,KS,39.804329,-100.490859
20041,Dickinson,KS,38.881314,-97.149128
20043,Doniphan,KS,39.788642,-95.07501
20045,Douglas,KS,38.941783,-95.251337
20047,Edwards,KS,37.914412,-99.354911
20049,Elk,KS,37.421638,-96.236702
20051,Ellis,KS,38.88156,-99.32999
20053,Ellsworth,KS,38.721016,-98.262851
20055,Finney,KS,37.97733,-100.86582
20057,Ford,KS,37.751112,-99.994842
20059,Franklin,KS,38.602731,-95.260071
20061,Geary,KS,39.03865,-96.83925
20063,Gove,KS,39.047631,-100.374241
20065,Graham,KS,39.359746,-99.857852
20067,Grant,KS,37.580306,-101.34973
20069,Gray,KS,37.726577,-100.412964
20071,Greeley,KS,38.487089,-101.763211
20073,Greenwood,KS,37.85753,-96.226569
20075,Hamilton,KS,37.979185,-101.76766
20077,Harper,KS,37.215092,-98.051218
20079,Harvey,KS,38.047085,-97.385273
20081,Haskell,KS,37.500029,-100.89411
20083,Hodgeman,KS,38.083504,-99.867564
20085,Jackson,KS,39.400924,-95.751346
20087,Jefferson,KS,39.210891,-95.397856
20089,Jewell,KS,39.775457,-98.201227
20091,Johnson,KS,38.928049,-94.737132
20093,Kearny,KS,37.954211,-101.237967
20095,Kingman,KS,37.608437,-98.097712
20097,Kiowa,KS,37.598711,-99.257059
20099,Labette,KS,37.258236,-95.260544
20101,Lane,KS,38.503002,-100.487778
20103,Leavenworth,KS,39.238518,-94.959302
20105,Lincoln,KS,39.036065,-98.175271
20107,Linn,KS,38.237359,-94.801632
20109,Logan,KS,39.098288,-100.925261
20111,Lyon,KS,38.416154,-96.179779
20113,McPherson,KS,38.381163,-97.647603
20115,Marion,KS,38.326437,-97.124507
20117,Marshall,KS,39.800028,-96.573612
20119,Meade,KS,37.292089,-100.394216
20121,Miami,KS,38.590405,-94.836385
20123,Mitchell,KS,39.454968,-98.174198
20125,Montgomery,KS,37.139982,-95.695334
20127,Morris,KS,38.698154,-96.588826
20129,Morton,KS,37.047093,-101.838333
20131,Nemaha,KS,39.829915,-95.962628
20133,Neosho,KS,37.624963,-95.39482
20135,Ness,KS,38.492429,-99.898826
20137,Norton,KS,39.820601,-99.878289
20139,Osage,KS,38.698945,-95.711621
20141,Osborne,KS,39.424792,-98.707572
20143,Ottawa,KS,39.096434,-97.681833
20145,Pawnee,KS,38.178541,-99.147286
20147,Phillips,KS,39.757048,-99.349355
20149,Pottawatomie,KS,39.258473,-96.316121
20151,Pratt,KS,37.645065,-98.731177
20153,Rawlins,KS,39.807807,-101.053756
20155,Reno,KS,38.050915,-97.933041
20157,Republic,KS,39.818188,-97.659183
20159,Rice,KS,38.321963,-98.201028
20161,Riley,KS,39.189473,-96.633015
20163,Rooks,KS,39.314266,-99.316791
20165,Rush,KS,38.525797,-99.283593
20167,Russell,KS,38.904508,-98.824959
20169,Saline,KS,38.815777,-97.606733
20171,Scott,KS,38.482303,-100.913605
20173,Sedgwick,KS,37.678808,-97.344603
20175,Seward,KS,37.052196,-100.9161
20177,Shawnee,KS,39.035591,-95.705467
20179,Sheridan,KS,39.36791,-100.467964
20181,Sherman,KS,39.349294,-101.726283
20183,Smith,KS,39.770675,-98.809623
20185,Stafford,KS,38.00686,-98.736685
20187,Stanton,KS,37.566267,-101.756238
20189,Stevens,KS,37.190103,-101.322335
20191,Sumner,KS,37.304076,-97.406852
20193,Thomas,KS,39.38443,-101.04619
20195,Trego,KS,39.004452,-99.881979
20197,Wabaunsee,KS,38.984769,-96.177572
20199,Wallace,KS,38.888589,-101.765288
20201,Washington,KS,39.782029,-97.054087
20203,Wichita,KS,38.494297,-101.349386
20205,Wilson,KS,37.512574,-95.741217
20207,Woodson,KS,37.8733,-95.739522
20209,Wyandotte,KS,39.104143,-94.707937
21001,Adair,KY,37.107756,-85.279096
21003,Allen,KY,36.747908,-86.208056
21005,Anderson,KY,38.028088,-84.923071
21007,Ballard,KY,37.04421,-88.97886
21009,Barren,KY,36.996774,-85.931813
21011,Bath,KY,38.139441,-83.73656
21013,Bell,KY,36.687928,-83.701396
21015,Boone,KY,38.9871,-84.679715
21017,Bourbon,KY,38.202978,-84.246611
21019,Boyd,KY,38.431905,-82.666548
21021,Boyle,KY,37.635777,-84.799493
21023,Bracken,KY,38.702562,-84.070088
21025,Breathitt,KY,37.520092,-83.37768
21027,Breckinridge,KY,37.770382,-86.410471
21029,Bullitt,KY,38.022943,-85.655385
21031,Butler,KY,37.218921,-86.680574
21033,Caldwell,KY,37.127446,-87.87922
21035,Calloway,KY,36.620185,-88.305814
21037,Campbell,KY,39.035049,-84.44141
21039,Carlisle,KY,36.854337,-88.94788
21041,Carroll,KY,38.668554,-85.139328
21043,Carter,KY,38.313503,-83.03816
21045,Casey,KY,37.303319,-84.924168
21047,Christian,KY,36.810955,-87.478173
21049,Clark,KY,37.986825,-84.182232
21051,Clay,KY,37.169598,-83.746759
21053,Clinton,KY,36.713992,-85.135223
21055,Crittenden,KY,37.332496,-88.095078
21057,Cumberland,KY,36.778888,-85.389079
21059,Daviess,KY,37.747732,-87.094971
21061,Edmonson,KY,37.196775,-86.255277
21063,Elliott,KY,38.122128,-83.106515
21065,Estill,KY,37.706277,-83.988899
21067,Fayette,KY,38.020523,-84.496639
21069,Fleming,KY,38.388567,-83.708286
21071,Floyd,KY,37.552299,-82.738526
21073,Franklin,KY,38.196045,-84.867592
21075,Fulton,KY,36.538176,-89.035017
21077,Gallatin,KY,38.764401,-84.842979
21079,Garrard,KY,37.649333,-84.575557
21081,Grant,KY,38.688104,-84.602069
21083,Graves,KY,36.741213,-88.650362
21085,Grayson,KY,37.46909,-86.306723
21087,Green,KY,37.265597,-85.538944
21089,Greenup,KY,38.555431,-82.812206
21091,Hancock,KY,37.868017,-86.804762
21093,Hardin,KY,37.746047,-85.917039
21095,Harlan,KY,36.865625,-83.232825
21097,Harrison,KY,38.415966,-84.314823
21099,Hart,KY,37.278157,-85.885789
21101,Henderson,KY,37.818482,-87.564405
21103,Henry,KY,38.431904,-85.179495
21105,Hickman,KY,36.666725,-88.959953
21107,Hopkins,KY,37.305866,-87.523154
21109,Jackson,KY,37.402802,-83.99368
21111,Jefferson,KY,38.201775,-85.691832
21113,Jessamine,KY,37.884455,-84.587046
21115,Johnson,KY,37.829598,-82.813992
21117,Kenton,KY,39.01319,-84.548581
21119,Knott,KY,37.32759,-82.940555
21121,Knox,KY,36.901584,-83.915231
21123,Larue,KY,37.544796,-85.723408
21125,Laurel,KY,37.091397,-84.087834
21127,Lawrence,KY,38.078995,-82.681643
21129,Lee,KY,37.591773,-83.701692
21131,Leslie,KY,37.115255,-83.37635
21133,Letcher,KY,37.14583,-82.807173
21135,Lewis,KY,38.562531,-83.347091
21137,Lincoln,KY,37.473121,-84.669872
21139,Livingston,KY,37.135813,-88.350899
21141,Logan,KY,36.85949,-86.865922
21143,Lyon,KY,37.060704,-88.079778
21145,McCracken,KY,37.048079,-88.648273
21147,McCreary,KY,36.715761,-84.446083
21149,McLean,KY,37.513232,-87.219315
21151,Madison,KY,37.70616,-84.287451
21153,Magoffin,KY,37.729816,-83.056234
21155,Marion,KY,37.569587,-85.287195
21157,Marshall,KY,36.898302,-88.339329
21159,Martin,KY,37.830545,-82.51692
21161,Mason,KY,38.616398,-83.788535
21163,Meade,KY,37.934298,-86.132811
21165,Menifee,KY,37.939449,-83.598399
21167,Mercer,KY,37.785009,-84.849691
21169,Metcalfe,KY,36.990816,-85.641586
21171,Monroe,KY,36.708328,-85.729921
21173,Montgomery,KY,38.035773,-83.917436
21175,Morgan,KY,37.91274,-83.266566
21177,Muhlenberg,KY,37.23809,-87.14704
21179,Nelson,KY,37.818018,-85.460371
21181,Nicholas,KY,38.327655,-84.023779
21183,Ohio,KY,37.465058,-86.864293
21185,Oldham,KY,38.372848,-85.459538
21187,Owen,KY,38.531935,-84.831925
21189,Owsley,KY,37.452097,-83.684099
21191,Pendleton,KY,38.715798,-84.359742
21193,Perry,KY,37.257625,-83.20106
21195,Pike,KY,37.463505,-82.420659
21197,Powell,KY,37.852293,-83.88113
21199,Pulaski,KY,37.092819,-84.614645
21201,Robertson,KY,38.520826,-84.048848
21203,Rockcastle,KY,37.381612,-84.348396
21205,Rowan,KY,38.194616,-83.442318
21207,Russell,KY,37.029336,-85.05932
21209,Scott,KY,38.231691,-84.570575
21211,Shelby,KY,38.213513,-85.230241
21213,Simpson,KY,36.733285,-86.572109
21215,Spencer,KY,38.059721,-85.350915
21217,Taylor,KY,37.350402,-85.343425
21219,Todd,KY,36.81176,-87.171454
21221,Trigg,KY,36.847047,-87.836202
21223,Trimble,KY,38.620698,-85.332526
21225,Union,KY,37.653315,-87.926958
21227,Warren,KY,36.970396,-86.434563
21229,Washington,KY,37.738655,-85.190875
21231,Wayne,KY,36.837888,-84.844614
21233,Webster,KY,37.499711,-87.687044
21235,Whitley,KY,36.809692,-84.140995
21237,Wolfe,KY,37.740622,-83.510902
21239,Woodford,KY,38.050068,-84.727271
22001,Acadia,LA,30.278555,-92.351799
22003,Allen,LA,30.669387,-92.774458
22005,Ascension,LA,30.248525,-90.934028
22007,Assumption,LA,29.922957,-91.06645
22009,Avoyelles,LA,31.053586,-92.062566
22011,Beauregard,LA,30.733885,-93.287136
22013,Bienville,LA,32.388898,-93.080261
22015,Bossier,LA,32.555697,-93.656675
22017,Caddo,LA,32.472074,-93.800831
22019,Calcasieu,LA,30.227531,-93.261485
22021,Caldwell,LA,32.078215,-92.103757
22023,Cameron,LA,29.956693,-93.212142
22025,Catahoula,LA,31.696936,-91.824471
22027,Claiborne,LA,32.833682,-93.03306
22029,Concordia,LA,31.592783,-91.545991
22031,De Soto,LA,32.10498,-93.776734
22033,East Baton Rouge,LA,30.462492,-91.100943
22035,East Carroll,LA,32.770972,-91.19516
22037,East Feliciana,LA,30.826843,-91.089224
22039,Evangeline,LA,30.685722,-92.362231
22041,Franklin,LA,32.143813,-91.696268
22043,Grant,LA,31.534149,-92.542816
22045,Iberia,LA,29.994199,-91.810231
22047,Iberville,LA,30.272099,-91.234302
22049,Jackson,LA,32.280659,-92.646015
22051,Jefferson,LA,29.945261,-90.153175
22053,Jefferson Davis,LA,30.240194,-92.738028
22055,Lafayette,LA,30.205215,-92.043759
22057,Lafourche,LA,29.679993,-90.615099
22059,La Salle,LA,31.730558,-92.172553
22061,Lincoln,LA,32.549258,-92.64793
22063,Livingston,LA,30.483388,-90.840765
22065,Madison,LA,32.397648,-91.196834
22067,Morehouse,LA,32.786393,-91.886161
22069,Natchitoches,LA,31.759482,-93.097361
22071,Orleans,LA,29.972699,-90.05284
22073,Ouachita,LA,32.514346,-92.129634
22075,Plaquemines,LA,29.72176,-89.90076
22077,Pointe Coupee,LA,30.67107,-91.50006
22079,Rapides,LA,31.28458,-92.457473
22081,Red River,LA,32.054629,-93.307602
22083,Richland,LA,32.441085,-91.714756
22085,Sabine,LA,31.581882,-93.566643
22087,St Bernard,LA,29.928239,-89.934425
22089,St Charles,LA,29.939397,-90.376773
22091,St Helena,LA,30.788338,-90.693879
22093,St James,LA,30.020769,-90.737207
22095,St John The Baptist,LA,30.071497,-90.513417
22097,St Landry,LA,30.514029,-92.111314
22099,St Martin,LA,30.229052,-91.835169
22101,St Mary,LA,29.740593,-91.344782
22103,St Tammany,LA,30.383308,-89.948329
22105,Tangipahoa,LA,30.571611,-90.455513
22107,Tensas,LA,31.964792,-91.297084
22109,Terrebonne,LA,29.592812,-90.722239
22111,Union,LA,32.794504,-92.404307
22113,Vermilion,LA,29.993689,-92.165923
22115,Vernon,LA,31.094949,-93.245823
22117,Washington,LA,30.835918,-89.996174
22119,Webster,LA,32.7001,-93.340925
22121,West Baton Rouge,LA,30.443957,-91.264463
22123,West Carroll,LA,32.816551,-91.431802
22125,West Feliciana,LA,30.893607,-91.404737
22127,Winn,LA,31.929892,-92.676588
23001,Androscoggin,ME,44.119069,-70.201312
23003,Aroostook,ME,46.705048,-68.086628
23005,Cumberland,ME,43.748088,-70.305589
23007,Franklin,ME,44.70749,-70.225634
23009,Hancock,ME,44.471475,-68.467743
23011,Kennebec,ME,44.396102,-69.749178
23013,Knox,ME,44.129786,-69.162849
23015,Lincoln,ME,44.032332,-69.555057
23017,Oxford,ME,44.28237,-70.61336
23019,Penobscot,ME,44.953036,-68.79423
23021,Piscataquis,ME,45.242097,-69.263375
23023,Sagadahoc,ME,43.956202,-69.869704
23025,Somerset,ME,44.821921,-69.685757
23027,Waldo,ME,44.491137,-69.086553
23029,Washington,ME,44.863591,-67.464919
23031,York,ME,43.424108,-70.640561
24001,Allegany,MD,39.629197,-78.822261
24003,Anne Arundel,MD,39.067301,-76.598917
24005,Baltimore,MD,39.369252,-76.620366
24009,Calvert,MD,38.548518,-76.542042
24011,Caroline,MD,38.874331,-75.831491
24013,Carroll,MD,39.527218,-76.9931
24015,Cecil,MD,39.613824,-75.936585
24017,Charles,MD,38.578559,-76.953006
24019,Dorchester,MD,38.570623,-76.009758
24021,Frederick,MD,39.432254,-77.400231
24023,Garrett,MD,39.512187,-79.303138
24025,Harford,MD,39.521376,-76.310879
24027,Howard,MD,39.219271,-76.856729
24029,Kent,MD,39.24506,-76.058525
24031,Montgomery,MD,39.086185,-77.122862
24033,Prince Georges,MD,38.908576,-76.889947
24035,Queen Anne's,MD,39.022436,-76.148099
24037,St Mary's,MD,38.307326,-76.578864
24039,Somerset,MD,38.132883,-75.743445
24041,Talbot,MD,38.769665,-76.098126
24043,Washington,MD,39.617574,-77.731386
24045,Wicomico,MD,38.371571,-75.595082
24047,Worcester,MD,38.301936,-75.238169
24510,Baltimore City,MD,39.314892,-76.619614
25001,Barnstable,MA,41.690216,-70.333968
25003,Berkshire,MA,42.460781,-73.216577
25005,Bristol,MA,41.793219,-71.108301
25007,Dukes,MA,41.421286,-70.602745
25009,Essex,MA,42.62479,-70.987816
25011,Franklin,MA,42.578289,-72.558703
25013,Hampden,MA,42.125927,-72.575325
25015,Hampshire,MA,42.312537,-72.573322
25017,Middlesex,MA,42.448546,-71.255223
25019,Nantucket,MA,41.267912,-70.09112
25021,Norfolk,MA,42.202695,-71.14756
25023,Plymouth,MA,42.023962,-70.853689
25025,Suffolk,MA,42.334806,-71.078632
25027,Worcester,MA,42.303704,-71.805321
26001,Alcona,MI,44.665115,-83.467594
26003,Alger,MI,46.388671,-86.70041
26005,Allegan,MI,42.603137,-85.874288
26007,Alpena,MI,45.050953,-83.504463
26009,Antrim,MI,44.978647,-85.198692
26011,Arenac,MI,44.044496,-83.88273
26013,Baraga,MI,46.765021,-88.45426
26015,Barry,MI,42.614153,-85.341744
26017,Bay,MI,43.630574,-83.928385
26019,Benzie,MI,44.650382,-86.016123
26021,Berrien,MI,41.987514,-86.407539
26023,Branch,MI,41.929764,-85.031761
26025,Calhoun,MI,42.289509,-85.101835
26027,Cass,MI,41.891974,-86.040589
26029,Charlevoix,MI,45.247029,-85.115158
26031,Cheboygan,MI,45.512741,-84.518691
26033,Chippewa,MI,46.367641,-84.395364
26035,Clare,MI,43.945731,-84.826409
26037,Clinton,MI,42.891278,-84.55503
26039,Crawford,MI,44.655061,-84.666533
26041,Delta,MI,45.802381,-87.066378
26043,Dickinson,MI,45.833651,-88.01381
26045,Eaton,MI,42.64387,-84.740485
26047,Emmet,MI,45.433951,-84.908934
26049,Genesee,MI,43.006414,-83.694732
26051,Gladwin,MI,43.967071,-84.437377
26053,Gogebic,MI,46.435975,-89.978538
26055,Grand Traverse,MI,44.710656,-85.607171
26057,Gratiot,MI,43.343314,-84.629372
26059,Hillsdale,MI,41.917025,-84.603983
26061,Houghton,MI,47.12765,-88.54161
26063,Huron,MI,43.833604,-83.061783
26065,Ingham,MI,42.68888,-84.487816
26067,Ionia,MI,42.956879,-85.085925
26069,Iosco,MI,44.356582,-83.53696
26071,Iron,MI,46.098021,-88.534279
26073,Isabella,MI,43.607247,-84.799832
26075,Jackson,MI,42.241313,-84.406366
26077,Kalamazoo,MI,42.26348,-85.584896
26079,Kalkaska,MI,44.720698,-85.166074
26081,Kent,MI,42.963793,-85.626605
26083,Keweenaw,MI,47.333639,-88.30247
26085,Lake,MI,43.95981,-85.798358
26087,Lapeer,MI,43.059695,-83.250561
26089,Leelanau,MI,44.909768,-85.732585
26091,Lenawee,MI,41.925187,-84.052388
26093,Livingston,MI,42.573054,-83.857596
26095,Luce,MI,46.334456,-85.550951
26097,Mackinac,MI,45.997905,-84.879992
26099,Macomb,MI,42.58689,-82.957388
26101,Manistee,MI,44.303916,-86.188019
26103,Marquette,MI,46.486961,-87.494598
26105,Mason,MI,43.974937,-86.347842
26107,Mecosta,MI,43.653562,-85.388822
26109,Menominee,MI,45.341048,-87.582124
26111,Midland,MI,43.642775,-84.298064
26113,Missaukee,MI,44.305822,-85.179438
26115,Monroe,MI,41.900249,-83.485782
26117,Montcalm,MI,43.288474,-85.180571
26119,Montmorency,MI,44.999428,-84.123031
26121,Muskegon,MI,43.244173,-86.215441
26123,Newaygo,MI,43.46692,-85.809843
26125,Oakland,MI,42.587535,-83.310386
26127,Oceana,MI,43.632703,-86.304176
26129,Ogemaw,MI,44.287569,-84.123289
26131,Ontonagon,MI,46.720246,-89.2851
26133,Osceola,MI,43.965561,-85.351195
26135,Oscoda,MI,44.696783,-84.147141
26137,Otsego,MI,45.006777,-84.666879
26139,Ottawa,MI,42.909362,-86.021326
26141,Presque Isle,MI,45.356834,-83.873629
26143,Roscommon,MI,44.364864,-84.649836
26145,Saginaw,MI,43.3982,-83.993736
26147,St Clair,MI,42.911355,-82.564383
26149,St Joseph,MI,41.888048,-85.52719
26151,Sanilac,MI,43.364275,-82.779371
26153,Schoolcraft,MI,46.004789,-86.227647
26155,Shiawassee,MI,42.942805,-84.147237
26157,Tuscola,MI,43.429727,-83.435718
26159,Van Buren,MI,42.260692,-86.00994
26161,Washtenaw,MI,42.256943,-83.727147
26163,Wayne,MI,42.33261,-83.217933
26165,Wexford,MI,44.307684,-85.485562
27001,Aitkin,MN,46.570765,-93.524368
27003,Anoka,MN,45.195145,-93.270245
27005,Becker,MN,46.849159,-95.776251
27007,Beltrami,MN,47.591009,-94.863032
27009,Benton,MN,45.633538,-94.102484
27011,Big Stone,MN,45.400021,-96.443222
27013,Blue Earth,MN,44.129816,-93.998839
27015,Brown,MN,44.284244,-94.599226
27017,Carlton,MN,46.642726,-92.536239
27019,Carver,MN,44.83804,-93.679956
27021,Cass,MN,46.814565,-94.415763
27023,Chippewa,MN,44.960561,-95.620749
27025,Chisago,MN,45.453007,-92.924051
27027,Clay,MN,46.857998,-96.672421
27029,Clearwater,MN,47.561894,-95.388249
27031,Cook,MN,47.783499,-90.337909
27033,Cottonwood,MN,43.94151,-95.119501
27035,Crow Wing,MN,46.430372,-94.158899
27037,Dakota,MN,44.765954,-93.151767
27039,Dodge,MN,44.02998,-92.808798
27041,Douglas,MN,45.909027,-95.39199
27043,Faribault,MN,43.680245,-93.957933
27045,Fillmore,MN,43.692687,-92.082719
27047,Freeborn,MN,43.662563,-93.361794
27049,Goodhue,MN,44.449072,-92.667524
27051,Grant,MN,45.943212,-95.936611
27053,Hennepin,MN,44.974633,-93.36119
27055,Houston,MN,43.718927,-91.440063
27057,Hubbard,MN,47.057887,-94.934153
27059,Isanti,MN,45.544297,-93.261468
27061,Itasca,MN,47.315978,-93.520532
27063,Jackson,MN,43.665988,-95.112558
27065,Kanabec,MN,45.886315,-93.299412
27067,Kandiyohi,MN,45.15505,-95.016796
27069,Kittson,MN,48.729536,-96.781108
27071,Koochiching,MN,48.509405,-93.485728
27073,Lac Qui Parle,MN,44.982243,-96.133339
27075,Lake,MN,47.180205,-91.55743
27077,Lake Of The Woods,MN,48.765863,-94.745194
27079,Le Sueur,MN,44.39373,-93.717527
27081,Lincoln,MN,44.375241,-96.253532
27083,Lyon,MN,44.428427,-95.795395
27085,McLeod,MN,44.859713,-94.264668
27087,Mahnomen,MN,47.296073,-95.840755
27089,Marshall,MN,48.310109,-96.532098
27091,Martin,MN,43.665285,-94.511487
27093,Meeker,MN,45.136368,-94.482983
27095,Mille Lacs,MN,45.794231,-93.624487
27097,Morrison,MN,45.983428,-94.327628
27099,Mower,MN,43.665099,-92.898185
27101,Murray,MN,43.98645,-95.74103
27103,Nicollet,MN,44.265357,-94.06079
27105,Nobles,MN,43.636327,-95.667405
27107,Norman,MN,47.307989,-96.477907
27109,Olmsted,MN,44.023967,-92.473176
27111,Otter Tail,MN,46.405065,-95.793598
27113,Pennington,MN,48.102255,-96.148403
27115,Pine,MN,46.03341,-92.892705
27117,Pipestone,MN,43.981472,-96.270609
27119,Polk,MN,47.780427,-96.550934
27121,Pope,MN,45.629871,-95.43713
27123,Ramsey,MN,44.993146,-93.106321
27125,Red Lake,MN,47.876104,-96.135646
27127,Redwood,MN,44.43888,-95.195158
27129,Renville,MN,44.721974,-94.937875
27131,Rice,MN,44.370592,-93.260361
27133,Rock,MN,43.648101,-96.238816
27135,Roseau,MN,48.821304,-95.648394
27137,St Louis,MN,47.085203,-92.311226
27139,Scott,MN,44.713131,-93.467891
27141,Sherburne,MN,45.404646,-93.721897
27143,Sibley,MN,44.582707,-94.168405
27145,Stearns,MN,45.55783,-94.360801
27147,Steele,MN,44.064305,-93.214413
27149,Stevens,MN,45.580687,-95.926026
27151,Swift,MN,45.274076,-95.64442
27153,Todd,MN,46.066924,-94.886512
27155,Traverse,MN,45.751079,-96.54917
27157,Wabasha,MN,44.297858,-92.221086
27159,Wadena,MN,46.524393,-95.04137
27161,Waseca,MN,44.061,-93.549998
27163,Washington,MN,44.988623,-92.920897
27165,Watonwan,MN,43.993423,-94.583786
27167,Wilkin,MN,46.316536,-96.529683
27169,Winona,MN,44.023706,-91.714435
27171,Wright,MN,45.197631,-93.828888
27173,Yellow Medicine,MN,44.737553,-95.825953
28001,Adams,MS,31.547641,-91.352164
28003,Alcorn,MS,34.908785,-88.531068
28005,Amite,MS,31.180019,-90.817613
28007,Attala,MS,33.066234,-89.586852
28009,Benton,MS,34.81011,-89.204186
28011,Bolivar,MS,33.77228,-90.775341
28013,Calhoun,MS,33.929772,-89.306905
28015,Carroll,MS,33.458389,-89.918375
28017,Chickasaw,MS,33.932227,-88.931815
28019,Choctaw,MS,33.342151,-89.236281
28021,Claiborne,MS,31.935954,-90.954141
28023,Clarke,MS,32.062753,-88.730627
28025,Clay,MS,33.62459,-88.69246
28027,Coahoma,MS,34.222427,-90.569863
28029,Copiah,MS,31.889652,-90.3792
28031,Covington,MS,31.637591,-89.548718
28033,Desoto,MS,34.9304,-89.956695
28035,Forrest,MS,31.309039,-89.287875
28037,Franklin,MS,31.473218,-90.872761
28039,George,MS,30.870536,-88.592895
28041,Greene,MS,31.193014,-88.626139
28043,Grenada,MS,33.768122,-89.802799
28045,Hancock,MS,30.379392,-89.405662
28047,Harrison,MS,30.432955,-89.063834
28049,Hinds,MS,32.303868,-90.255669
28051,Holmes,MS,33.090289,-90.0284
28053,Humphreys,MS,33.161583,-90.519097
28055,Issaquena,MS,32.867279,-91.006351
28057,Itawamba,MS,34.292221,-88.40269
28059,Jackson,MS,30.44437,-88.660684
28061,Jasper,MS,31.966737,-89.144535
28063,Jefferson,MS,31.714659,-91.055531
28065,Jefferson Davis,MS,31.574917,-89.814551
28067,Jones,MS,31.668673,-89.16512
28069,Kemper,MS,32.759967,-88.677908
28071,Lafayette,MS,34.361506,-89.526937
28073,Lamar,MS,31.264156,-89.438738
28075,Lauderdale,MS,32.400679,-88.691796
28077,Lawrence,MS,31.555383,-90.109256
28079,Leake,MS,32.725455,-89.504736
28081,Lee,MS,34.274735,-88.702989
28083,Leflore,MS,33.513076,-90.209073
28085,Lincoln,MS,31.550891,-90.456276
28087,Lowndes,MS,33.515351,-88.392697
28089,Madison,MS,32.510711,-90.098347
28091,Marion,MS,31.244447,-89.829694
28093,Marshall,MS,34.815764,-89.542843
28095,Monroe,MS,33.925912,-88.498114
28097,Montgomery,MS,33.496574,-89.682988
28099,Neshoba,MS,32.754204,-89.117671
28101,Newton,MS,32.41204,-89.128073
28103,Noxubee,MS,33.13112,-88.54983
28105,Oktibbeha,MS,33.449231,-88.828709
28107,Panola,MS,34.350009,-89.938355
28109,Pearl River,MS,30.641968,-89.63173
28111,Perry,MS,31.262821,-88.991988
28113,Pike,MS,31.216057,-90.436396
28115,Pontotoc,MS,34.252502,-89.011424
28117,Prentiss,MS,34.631502,-88.552652
28119,Quitman,MS,34.27262,-90.262854
28121,Rankin,MS,32.279373,-90.033002
28123,Scott,MS,32.401463,-89.529197
28125,Sharkey,MS,32.924745,-90.859408
28127,Simpson,MS,31.916008,-89.853775
28129,Smith,MS,31.971849,-89.506985
28131,Stone,MS,30.809011,-89.136496
28133,Sunflower,MS,33.594123,-90.584058
28135,Tallahatchie,MS,33.983144,-90.197125
28137,Tate,MS,34.64608,-89.948155
28139,Tippah,MS,34.767895,-88.925793
28141,Tishomingo,MS,34.723482,-88.228366
28143,Tunica,MS,34.709638,-90.348008
28145,Union,MS,34.484262,-89.007903
28147,Walthall,MS,31.151622,-90.121389
28149,Warren,MS,32.325884,-90.845245
28151,Washington,MS,33.37108,-91.010964
28153,Wayne,MS,31.650101,-88.659321
28155,Webster,MS,33.582221,-89.226172
28157,Wilkinson,MS,31.121531,-91.238269
28159,Winston,MS,33.084925,-89.042843
28161,Yalobusha,MS,34.080595,-89.693557
28163,Yazoo,MS,32.82849,-90.380241
29001,Adair,MO,40.19566,-92.582446
29003,Andrew,MO,39.922565,-94.818293
29005,Atchison,MO,40.421105,-95.437688
29007,Audrain,MO,39.205358,-91.821071
29009,Barry,MO,36.735065,-93.862744
29011,Barton,MO,37.495228,-94.308903
29013,Bates,MO,38.276163,-94.362322
29015,Benton,MO,38.302689,-93.308948
29017,Bollinger,MO,37.338242,-89.998323
29019,Boone,MO,38.959866,-92.321523
29021,Buchanan,MO,39.750602,-94.821954
29023,Butler,MO,36.75379,-90.413589
29025,Caldwell,MO,39.664765,-93.994816
29027,Callaway,MO,38.802239,-91.993447
29029,Camden,MO,38.072828,-92.749496
29031,Cape Girardeau,MO,37.353894,-89.60625
29033,Carroll,MO,39.410155,-93.495631
29035,Carter,MO,36.949427,-90.897277
29037,Cass,MO,38.746895,-94.423526
29039,Cedar,MO,37.767996,-93.895022
29041,Chariton,MO,39.486626,-92.934967
29043,Christian,MO,37.025687,-93.262511
29045,Clark,MO,40.413068,-91.704732
29047,Clay,MO,39.251395,-94.49392
29049,Clinton,MO,39.602093,-94.370131
29051,Cole,MO,38.552393,-92.218634
29053,Cooper,MO,38.909615,-92.772604
29055,Crawford,MO,38.059819,-91.322802
29057,Dade,MO,37.415613,-93.829944
29059,Dallas,MO,37.643825,-93.067095
29061,Daviess,MO,39.942683,-93.983258
29063,DeKalb,MO,39.81961,-94.340504
29065,Dent,MO,37.630684,-91.542131
29067,Douglas,MO,36.939746,-92.588247
29069,Dunklin,MO,36.326743,-90.059209
29071,Franklin,MO,38.432966,-90.999826
29073,Gasconade,MO,38.45363,-91.491625
29075,Gentry,MO,40.199987,-94.439143
29077,Greene,MO,37.193837,-93.3083
29079,Grundy,MO,40.091968,-93.595469
29081,Harrison,MO,40.313851,-94.000823
29083,Henry,MO,38.394758,-93.736873
29085,Hickory,MO,37.910659,-93.330251
29087,Holt,MO,40.092393,-95.199972
29089,Howard,MO,39.139325,-92.705762
29091,Howell,MO,36.793133,-91.873823
29093,Iron,MO,37.571851,-90.711599
29095,Jackson,MO,39.010332,-94.446137
29097,Jasper,MO,37.128993,-94.443436
29099,Jefferson,MO,38.340593,-90.475744
29101,Johnson,MO,38.757209,-93.770312
29103,Knox,MO,40.151668,-92.150669
29105,Laclede,MO,37.669645,-92.65456
29107,Lafayette,MO,39.056329,-93.840082
29109,Lawrence,MO,37.035398,-93.797074
29111,Lewis,MO,40.085505,-91.649082
29113,Lincoln,MO,39.003625,-90.928671
29115,Linn,MO,39.796774,-93.065191
29117,Livingston,MO,39.795916,-93.554324
29119,McDonald,MO,36.618064,-94.39808
29121,Macon,MO,39.798522,-92.51033
29123,Madison,MO,37.535795,-90.300055
29125,Maries,MO,38.171917,-91.878062
29127,Marion,MO,39.740805,-91.455661
29129,Mercer,MO,40.418591,-93.575859
29131,Miller,MO,38.247837,-92.507085
29133,Mississippi,MO,36.857051,-89.365459
29135,Moniteau,MO,38.628938,-92.616373
29137,Monroe,MO,39.520553,-91.973958
29139,Montgomery,MO,38.950802,-91.468473
29141,Morgan,MO,38.381506,-92.850304
29143,New Madrid,MO,36.605307,-89.65871
29145,Newton,MO,36.921798,-94.41138
29147,Nodaway,MO,40.352749,-94.867916
29149,Oregon,MO,36.618129,-91.464771
29151,Osage,MO,38.453819,-91.883136
29153,Ozark,MO,36.62309,-92.424289
29155,Pemiscot,MO,36.181794,-89.748715
29157,Perry,MO,37.713672,-89.857097
29159,Pettis,MO,38.702201,-93.246549
29161,Phelps,MO,37.942882,-91.748715
29163,Pike,MO,39.363535,-91.156139
29165,Platte,MO,39.262166,-94.684698
29167,Polk,MO,37.601813,-93.404415
29169,Pulaski,MO,37.824257,-92.1773
29171,Putnam,MO,40.480842,-92.979269
29173,Ralls,MO,39.57958,-91.468633
29175,Randolph,MO,39.412906,-92.451935
29177,Ray,MO,39.335641,-94.06127
29179,Reynolds,MO,37.336586,-90.972986
29181,Ripley,MO,36.627212,-90.791802
29183,St Charles,MO,38.776604,-90.659755
29185,St Clair,MO,38.056009,-93.765606
29186,Ste Genevieve,MO,37.939468,-90.168495
29187,St Francois,MO,37.835573,-90.492254
29189,St Louis,MO,38.647121,-90.386218
29195,Saline,MO,39.111933,-93.204898
29197,Schuyler,MO,40.461815,-92.521984
29199,Scotland,MO,40.448001,-92.146652
29201,Scott,MO,37.014498,-89.577839
29203,Shannon,MO,37.069627,-91.429472
29205,Shelby,MO,39.761774,-92.077052
29207,Stoddard,MO,36.850777,-89.969639
29209,Stone,MO,36.717605,-93.438433
29211,Sullivan,MO,40.217733,-93.103734
29213,Taney,MO,36.656706,-93.189979
29215,Texas,MO,37.328457,-91.968488
29217,Vernon,MO,37.835598,-94.340355
29219,Warren,MO,38.788663,-91.10358
29221,Washington,MO,37.953147,-90.785675
29223,Wayne,MO,37.107087,-90.512622
29225,Webster,MO,37.263337,-92.907363
29227,Worth,MO,40.482258,-94.438797
29229,Wright,MO,37.192204,-92.429174
29510,St Louis City,MO,38.623609,-90.252991
30001,Beaverhead,MT,45.221056,-112.696186
30003,Big Horn,MT,45.565831,-107.502778
30005,Blaine,MT,48.441261,-108.899086
30007,Broadwater,MT,46.302846,-111.535578
30009,Carbon,MT,45.321484,-109.084478
30011,Carter,MT,45.679127,-104.523733
30013,Cascade,MT,47.491839,-111.306258
30015,Chouteau,MT,47.956366,-110.403274
30017,Custer,MT,46.403369,-105.817008
30019,Daniels,MT,48.783416,-105.43032
30021,Dawson,MT,47.134482,-104.750559
30023,Deer Lodge,MT,46.137755,-112.954087
30025,Fallon,MT,46.358863,-104.309448
30027,Fergus,MT,47.097548,-109.417095
30029,Flathead,MT,48.247204,-114.279524
30031,Gallatin,MT,45.682805,-111.128283
30033,Garfield,MT,47.299773,-106.97783
30035,Glacier,MT,48.60292,-112.799156
30037,Golden Valley,MT,46.287061,-109.139695
30039,Granite,MT,46.448832,-113.293879
30041,Hill,MT,48.515786,-109.762794
30043,Jefferson,MT,46.254092,-112.053101
30045,Judith Basin,MT,47.102395,-110.177445
30047,Lake,MT,47.601938,-114.120003
30049,Lewis And Clark,MT,46.64477,-112.021955
30051,Liberty,MT,48.563509,-111.000283
30053,Lincoln,MT,48.545504,-115.437677
30055,McCone,MT,47.561984,-105.644548
30057,Madison,MT,45.43599,-111.949217
30059,Meagher,MT,46.526827,-110.875445
30061,Mineral,MT,47.185566,-114.899744
30063,Missoula,MT,46.875472,-114.019007
30065,Musselshell,MT,46.417552,-108.490425
30067,Park,MT,45.59709,-110.599015
30069,Petroleum,MT,47.012441,-108.296716
30071,Phillips,MT,48.374315,-107.857685
30073,Pondera,MT,48.210126,-112.14458
30075,Powder River,MT,45.440737,-105.535004
30077,Powell,MT,46.449212,-112.760484
30079,Prairie,MT,46.807847,-105.269953
30081,Ravalli,MT,46.352649,-114.117267
30083,Richland,MT,47.718572,-104.203904
30085,Roosevelt,MT,48.132541,-105.24766
30087,Rosebud,MT,45.907996,-106.611337
30089,Sanders,MT,47.636131,-115.177085
30091,Sheridan,MT,48.737464,-104.499376
30093,Silver Bow,MT,45.98796,-112.524356
30095,Stillwater,MT,45.613806,-109.249493
30097,Sweet Grass,MT,45.830248,-109.915919
30099,Teton,MT,47.771875,-112.054612
30101,Toole,MT,48.585262,-111.85338
30103,Treasure,MT,46.255884,-107.241002
30105,Valley,MT,48.233939,-106.546143
30107,Wheatland,MT,46.459736,-109.844091
30109,Wibaux,MT,46.969011,-104.196159
30111,Yellowstone,MT,45.791309,-108.539417
31001,Adams,NE,40.583763,-98.414536
31003,Antelope,NE,42.149596,-98.05683
31005,Arthur,NE,41.569808,-101.673813
31007,Banner,NE,41.557925,-103.702088
31009,Blaine,NE,41.901108,-100.007203
31011,Boone,NE,41.68018,-98.01636
31013,Box Butte,NE,42.13504,-102.903704
31015,Boyd,NE,42.891084,-98.730816
31017,Brown,NE,42.538836,-99.852141
31019,Buffalo,NE,40.737667,-99.07016
31021,Burt,NE,41.845797,-96.34254
31023,Butler,NE,41.248949,-97.141234
31025,Cass,NE,40.946526,-96.062535
31027,Cedar,NE,42.576273,-97.25486
31029,Chase,NE,40.500254,-101.619767
31031,Cherry,NE,42.784561,-100.754886
31033,Cheyenne,NE,41.166245,-102.982623
31035,Clay,NE,40.545465,-98.029666
31037,Colfax,NE,41.517571,-97.076554
31039,Cuming,NE,41.897578,-96.759175
31041,Custer,NE,41.401093,-99.672832
31043,Dakota,NE,42.445678,-96.441515
31045,Dawes,NE,42.785306,-103.066266
31047,Dawson,NE,40.828531,-99.858944
31049,Deuel,NE,41.088793,-102.345568
31051,Dixon,NE,42.438517,-96.830002
31053,Dodge,NE,41.473485,-96.53063
31055,Douglas,NE,41.25991,-96.061471
31057,Dundy,NE,40.093189,-101.601584
31059,Fillmore,NE,40.540682,-97.578024
31061,Franklin,NE,40.187621,-98.946914
31063,Frontier,NE,40.607972,-100.404194
31065,Furnas,NE,40.248006,-99.925599
31067,Gage,NE,40.274482,-96.714139
31069,Garden,NE,41.422768,-102.320765
31071,Garfield,NE,41.800943,-99.107238
31073,Gosper,NE,40.592124,-99.830993
31075,Grant,NE,41.984368,-101.731402
31077,Greeley,NE,41.556319,-98.497703
31079,Hall,NE,40.915597,-98.377535
31081,Hamilton,NE,40.878695,-98.021089
31083,Harlan,NE,40.145693,-99.40221
31085,Hayes,NE,40.49563,-101.058515
31087,Hitchcock,NE,40.211961,-101.006845
31089,Holt,NE,42.4584,-98.742988
31091,Hooker,NE,42.016041,-101.062839
31093,Howard,NE,41.189549,-98.493475
31095,Jefferson,NE,40.164028,-97.140354
31097,Johnson,NE,40.401369,-96.228933
31099,Kearney,NE,40.506264,-98.992742
31101,Keith,NE,41.141877,-101.696492
31103,Keya Paha,NE,42.868344,-99.703607
31105,Kimball,NE,41.232889,-103.660711
31107,Knox,NE,42.61911,-97.786962
31109,Lancaster,NE,40.801058,-96.673551
31111,Lincoln,NE,41.119635,-100.78923
31113,Logan,NE,41.484178,-100.500737
31115,Loup,NE,41.816483,-99.402546
31117,McPherson,NE,41.57331,-100.986347
31119,Madison,NE,42.003908,-97.461692
31121,Merrick,NE,41.1312,-98.039353
31123,Morrill,NE,41.707123,-103.159224
31125,Nance,NE,41.403829,-97.895028
31127,Nemaha,NE,40.403957,-95.836309
31129,Nuckolls,NE,40.115021,-98.061108
31131,Otoe,NE,40.669495,-96.029874
31133,Pawnee,NE,40.134921,-96.184059
31135,Perkins,NE,40.847278,-101.672531
31137,Phelps,NE,40.468151,-99.406756
31139,Pierce,NE,42.262663,-97.591986
31141,Platte,NE,41.469013,-97.387409
31143,Polk,NE,41.174759,-97.555813
31145,Red Willow,NE,40.205475,-100.587807
31147,Richardson,NE,40.099947,-95.673464
31149,Rock,NE,42.536442,-99.495235
31151,Saline,NE,40.578252,-97.02001
31153,Sarpy,NE,41.153107,-96.033892
31155,Saunders,NE,41.199571,-96.571016
31157,Scotts Bluff,NE,41.865018,-103.68038
31159,Seward,NE,40.873593,-97.106037
31161,Sheridan,NE,42.699305,-102.398893
31163,Sherman,NE,41.223634,-98.97165
31165,Sioux,NE,42.379652,-103.825082
31167,Stanton,NE,41.985653,-97.251636
31169,Thayer,NE,40.179229,-97.62535
31171,Thomas,NE,41.966823,-100.546734
31173,Thurston,NE,42.159409,-96.515688
31175,Valley,NE,41.57337,-98.947749
31177,Washington,NE,41.507053,-96.158296
31179,Wayne,NE,42.22193,-97.063062
31181,Webster,NE,40.200266,-98.485192
31183,Wheeler,NE,41.880574,-98.543873
31185,York,NE,40.864374,-97.605431
32001,Churchill,NV,39.473584,-118.795661
32003,Clark,NV,36.143366,-115.14994
32005,Douglas,NV,38.956913,-119.755928
32007,Elko,NV,40.870907,-115.518595
32009,Esmeralda,NV,37.708803,-117.677756
32011,Eureka,NV,39.866898,-116.147686
32013,Humboldt,NV,41.034176,-117.745055
32015,Lander,NV,40.520911,-116.94321
32017,Lincoln,NV,37.6903,-114.644504
32019,Lyon,NV,39.34878,-119.325133
32021,Mineral,NV,38.590037,-118.638693
32023,Nye,NV,36.468656,-116.165792
32027,Pershing,NV,40.34344,-118.294549
32029,Storey,NV,39.389364,-119.624138
32031,Washoe,NV,39.535558,-119.795493
32033,White Pine,NV,39.273238,-114.862381
32510,Carson City,NV,39.166134,-119.753711
33001,Belknap,NH,43.5174,-71.44059
33003,Carroll,NH,43.810972,-71.166412
33005,Cheshire,NH,42.898264,-72.262715
33007,Coos,NH,44.550062,-71.36275
33009,Grafton,NH,43.838874,-71.953268
33011,Hillsborough,NH,42.879889,-71.532928
33013,Merrimack,NH,43.246442,-71.586214
33015,Rockingham,NH,42.936726,-71.104266
33017,Strafford,NH,43.247646,-70.954943
33019,Sullivan,NH,43.367422,-72.259352
34001,Atlantic,NJ,39.427562,-74.583452
34003,Bergen,NJ,40.918799,-74.057383
34005,Burlington,NJ,39.982667,-74.834269
34007,Camden,NJ,39.86401,-75.027836
34009,Cape May,NJ,39.095952,-74.807133
34011,Cumberland,NJ,39.428284,-75.087728
34013,Essex,NJ,40.768705,-74.216402
34015,Gloucester,NJ,39.749187,-75.127456
34017,Hudson,NJ,40.742925,-74.061278
34019,Hunterdon,NJ,40.572183,-74.896782
34021,Mercer,NJ,40.255566,-74.70034
34023,Middlesex,NJ,40.485529,-74.387921
34025,Monmouth,NJ,40.291301,-74.14773
34027,Morris,NJ,40.859552,-74.501661
34029,Ocean,NJ,39.973657,-74.21461
34031,Passaic,NJ,40.925361,-74.191473
34033,Salem,NJ,39.625938,-75.37658
34035,Somerset,NJ,40.561176,-74.578798
34037,Sussex,NJ,41.091219,-74.654037
34039,Union,NJ,40.659609,-74.294239
34041,Warren,NJ,40.795162,-75.016426
35001,Bernalillo,NM,35.107877,-106.616039
35003,Catron,NM,33.928093,-108.549207
35005,Chaves,NM,33.364652,-104.51261
35006,Cibola,NM,35.113977,-107.804609
35007,Colfax,NM,36.702618,-104.643736
35009,Curry,NM,34.420099,-103.215708
35011,De Baca,NM,34.465462,-104.257875
35013,Dona Ana,NM,32.247294,-106.728697
35015,Eddy,NM,32.547601,-104.291387
35017,Grant,NM,32.780455,-108.242693
35019,Guadalupe,NM,34.930036,-104.792489
35021,Harding,NM,35.861023,-103.984528
35023,Hidalgo,NM,32.275633,-108.76674
35025,Lea,NM,32.753117,-103.193711
35027,Lincoln,NM,33.420964,-105.631173
35028,Los Alamos,NM,35.868766,-106.270283
35029,Luna,NM,32.217487,-107.740412
35031,McKinley,NM,35.511504,-108.63423
35033,Mora,NM,35.99928,-105.241049
35035,Otero,NM,32.806642,-105.989844
35037,Quay,NM,35.180626,-103.65613
35039,Rio Arriba,NM,36.201002,-106.204801
35041,Roosevelt,NM,34.167549,-103.348217
35043,Sandoval,NM,35.328605,-106.64926
35045,San Juan,NM,36.72194,-108.220647
35047,San Miguel,NM,35.573296,-105.309684
35049,Santa Fe,NM,35.630805,-106.004953
35051,Sierra,NM,33.109273,-107.277841
35053,Socorro,NM,34.153828,-106.957793
35055,Taos,NM,36.433447,-105.609376
35057,Torrance,NM,34.867124,-106.100997
35059,Union,NM,36.455575,-103.262118
35061,Valencia,NM,34.752149,-106.722542
36001,Albany,NY,42.678976,-73.81304
36003,Allegany,NY,42.228245,-78.019297
36005,Bronx,NY,40.849354,-73.882363
36007,Broome,NY,42.121306,-75.934245
36009,Cattaraugus,NY,42.224267,-78.607656
36011,Cayuga,NY,42.93537,-76.560044
36013,Chautauqua,NY,42.246256,-79.314671
36015,Chemung,NY,42.118262,-76.813046
36017,Chenango,NY,42.481195,-75.570326
36019,Clinton,NY,44.730039,-73.545325
36021,Columbia,NY,42.273336,-73.681049
36023,Cortland,NY,42.59613,-76.145474
36025,Delaware,NY,42.244535,-74.993985
36027,Dutchess,NY,41.681015,-73.839417
36029,Erie,NY,42.889478,-78.792596
36031,Essex,NY,44.174474,-73.689906
36033,Franklin,NY,44.712835,-74.344365
36035,Fulton,NY,43.059172,-74.330346
36037,Genesee,NY,42.999625,-78.173095
36039,Greene,NY,42.299303,-73.975873
36041,Hamilton,NY,43.612034,-74.385121
36043,Herkimer,NY,43.070536,-74.995034
36045,Jefferson,NY,44.019125,-75.89664
36047,Kings,NY,40.650523,-73.954811
36049,Lewis,NY,43.789217,-75.449321
36051,Livingston,NY,42.766358,-77.7642
36053,Madison,NY,42.984471,-75.717386
36055,Monroe,NY,43.161503,-77.619988
36057,Montgomery,NY,42.933549,-74.343088
36059,Nassau,NY,40.716587,-73.602242
36061,New York,NY,40.777958,-73.966303
36063,Niagara,NY,43.134704,-78.852109
36065,Oneida,NY,43.147454,-75.359106
36067,Onondaga,NY,43.067188,-76.167442
36069,Ontario,NY,42.899374,-77.260129
36071,Orange,NY,41.422034,-74.243059
36073,Orleans,NY,43.248317,-78.223294
36075,Oswego,NY,43.391821,-76.313145
36077,Otsego,NY,42.563531,-75.060062
36079,Putnam,NY,41.411282,-73.717247
36081,Queens,NY,40.721294,-73.833451
36083,Rensselaer,NY,42.699991,-73.629889
36085,Richmond,NY,40.588523,-74.137304
36087,Rockland,NY,41.127623,-74.019039
36089,St Lawrence,NY,44.651458,-75.149708
36091,Saratoga,NY,43.008801,-73.785787
36093,Schenectady,NY,42.809284,-73.946182
36095,Schoharie,NY,42.642508,-74.436027
36097,Schuyler,NY,42.387815,-76.869122
36099,Seneca,NY,42.827354,-76.828521
36101,Steuben,NY,42.266288,-77.320329
36103,Suffolk,NY,40.821924,-73.113775
36105,Sullivan,NY,41.700086,-74.707459
36107,Tioga,NY,42.12098,-76.297151
36109,Tompkins,NY,42.460259,-76.477416
36111,Ulster,NY,41.841064,-74.100745
36113,Warren,NY,43.396992,-73.714626
36115,Washington,NY,43.290255,-73.458693
36117,Wayne,NY,43.143734,-77.126682
36119,Westchester,NY,41.040536,-73.804532
36121,Wyoming,NY,42.725754,-78.218884
36123,Yates,NY,42.633657,-77.078037
37001,Alamance,NC,36.071263,-79.414193
37003,Alexander,NC,35.890299,-81.191638
37005,Alleghany,NC,36.498332,-81.105731
37007,Anson,NC,34.972824,-80.110145
37009,Ashe,NC,36.415077,-81.489759
37011,Avery,NC,36.07632,-81.943907
37013,Beaufort,NC,35.519484,-76.956571
37015,Bertie,NC,36.083776,-76.968883
37017,Bladen,NC,34.607845,-78.64109
37019,Brunswick,NC,34.03637,-78.229195
37021,Buncombe,NC,35.587674,-82.550087
37023,Burke,NC,35.730474,-81.638347
37025,Cabarrus,NC,35.399234,-80.612525
37027,Caldwell,NC,35.873614,-81.503741
37029,Camden,NC,36.36267,-76.19176
37031,Carteret,NC,34.746773,-76.804454
37033,Caswell,NC,36.402606,-79.361931
37035,Catawba,NC,35.695409,-81.245839
37037,Chatham,NC,35.744124,-79.236572
37039,Cherokee,NC,35.106484,-84.016472
37041,Chowan,NC,36.116754,-76.626254
37043,Clay,NC,35.035248,-83.807512
37045,Cleveland,NC,35.292496,-81.517017
37047,Columbus,NC,34.27927,-78.709221
37049,Craven,NC,35.066758,-77.038555
37051,Cumberland,NC,35.056493,-78.936138
37053,Currituck,NC,36.391946,-76.00904
37055,Dare,NC,35.907564,-75.674875
37057,Davidson,NC,35.853743,-80.199539
37059,Davie,NC,35.929813,-80.52158
37061,Duplin,NC,34.936096,-77.943354
37063,Durham,NC,35.989801,-78.9062
37065,Edgecombe,NC,35.903736,-77.656297
37067,Forsyth,NC,36.106431,-80.256625
37069,Franklin,NC,36.047826,-78.340858
37071,Gaston,NC,35.275594,-81.156574
37073,Gates,NC,36.46589,-76.706157
37075,Graham,NC,35.330969,-83.787962
37077,Granville,NC,36.223855,-78.657114
37079,Greene,NC,35.468776,-77.669536
37081,Guilford,NC,36.065215,-79.850251
37083,Halifax,NC,36.353153,-77.672949
37085,Harnett,NC,35.359863,-78.847096
37087,Haywood,NC,35.517983,-82.939915
37089,Henderson,NC,35.34095,-82.472355
37091,Hertford,NC,36.351304,-77.009973
37093,Hoke,NC,34.989624,-79.177133
37095,Hyde,NC,35.43421,-76.208134
37097,Iredell,NC,35.707328,-80.869103
37099,Jackson,NC,35.335275,-83.202489
37101,Johnston,NC,35.560263,-78.411954
37103,Jones,NC,35.027454,-77.353062
37105,Lee,NC,35.459779,-79.173135
37107,Lenoir,NC,35.262323,-77.631874
37109,Lincoln,NC,35.485027,-81.178511
37111,McDowell,NC,35.667958,-82.021507
37113,Macon,NC,35.157148,-83.380756
37115,Madison,NC,35.839078,-82.638666
37117,Martin,NC,35.83274,-77.100767
37119,Mecklenburg,NC,35.223469,-80.81662
37121,Mitchell,NC,35.962278,-82.114348
37123,Montgomery,NC,35.338988,-79.88204
37125,Moore,NC,35.244618,-79.44678
37127,Nash,NC,35.947411,-77.923901
37129,New Hanover,NC,34.211687,-77.879277
37131,Northampton,NC,36.431948,-77.434731
37133,Onslow,NC,34.741545,-77.400612
37135,Orange,NC,35.978596,-79.081244
37137,Pamlico,NC,35.105356,-76.775886
37139,Pasquotank,NC,36.293502,-76.246298
37141,Pender,NC,34.469476,-77.836015
37143,Perquimans,NC,36.181299,-76.424403
37145,Person,NC,36.373422,-78.970901
37147,Pitt,NC,35.57917,-77.381178
37149,Polk,NC,35.258669,-82.17545
37151,Randolph,NC,35.766292,-79.827981
37153,Richmond,NC,34.943604,-79.733496
37155,Robeson,NC,34.674582,-79.093867
37157,Rockingham,NC,36.402247,-79.772606
37159,Rowan,NC,35.620395,-80.521966
37161,Rutherford,NC,35.348446,-81.894978
37163,Sampson,NC,35.033839,-78.396164
37165,Scotland,NC,34.786334,-79.47868
37167,Stanly,NC,35.321525,-80.247474
37169,Stokes,NC,36.35064,-80.273917
37171,Surry,NC,36.431314,-80.656971
37173,Swain,NC,35.438412,-83.413457
37175,Transylvania,NC,35.2102,-82.745507
37177,Tyrrell,NC,35.907144,-76.238874
37179,Union,NC,35.013609,-80.619702
37181,Vance,NC,36.331178,-78.402101
37183,Wake,NC,35.797203,-78.673074
37185,Warren,NC,36.409715,-78.138543
37187,Washington,NC,35.864206,-76.649275
37189,Watauga,NC,36.220299,-81.685479
37191,Wayne,NC,35.370731,-77.988459
37193,Wilkes,NC,36.193059,-81.134214
37195,Wilson,NC,35.726988,-77.931323
37197,Yadkin,NC,36.163573,-80.675351
37199,Yancey,NC,35.910155,-82.292339
38001,Adams,ND,46.032949,-102.625989
38003,Barnes,ND,46.92752,-98.033032
38005,Benson,ND,48.020822,-99.146122
38007,Billings,ND,47.016207,-103.308303
38009,Bottineau,ND,48.820134,-100.650317
38011,Bowman,ND,46.171185,-103.396646
38013,Burke,ND,48.771943,-102.521915
38015,Burleigh,ND,46.822761,-100.761508
38017,Cass,ND,46.860506,-96.861406
38019,Cavalier,ND,48.755612,-98.41499
38021,Dickey,ND,46.087766,-98.328185
38023,Divide,ND,48.874965,-103.348927
38025,Dunn,ND,47.332654,-102.643252
38027,Eddy,ND,47.707976,-99.051857
38029,Emmons,ND,46.265684,-100.210914
38031,Foster,ND,47.461156,-99.040279
38033,Golden Valley,ND,46.894589,-103.962247
38035,Grand Forks,ND,47.907658,-97.120998
38037,Grant,ND,46.387962,-101.711807
38039,Griggs,ND,47.451199,-98.18781
38041,Hettinger,ND,46.448932,-102.544717
38043,Kidder,ND,46.919486,-99.813669
38045,Lamoure,ND,46.405346,-98.520959
38047,Logan,ND,46.498411,-99.548585
38049,McHenry,ND,48.182793,-100.694529
38051,McIntosh,ND,46.144162,-99.492295
38053,McKenzie,ND,47.815541,-103.228066
38055,McLean,ND,47.523976,-101.204564
38057,Mercer,ND,47.297717,-101.710274
38059,Morton,ND,46.819739,-101.011434
38061,Mountrail,ND,48.134702,-102.371315
38063,Nelson,ND,47.919339,-98.209414
38065,Oliver,ND,47.121328,-101.307901
38067,Pembina,ND,48.789947,-97.582307
38069,Pierce,ND,48.328166,-99.988011
38071,Ramsey,ND,48.136409,-98.834844
38073,Ransom,ND,46.478257,-97.657193
38075,Renville,ND,48.721416,-101.526364
38077,Richland,ND,46.264153,-96.76635
38079,Rolette,ND,48.836027,-99.817363
38081,Sargent,ND,46.163745,-97.591691
38083,Sheridan,ND,47.576556,-100.340156
38085,Sioux,ND,46.161951,-100.72635
38087,Slope,ND,46.411465,-103.443746
38089,Stark,ND,46.879757,-102.785075
38091,Steele,ND,47.459656,-97.746445
38093,Stutsman,ND,46.915799,-98.744696
38095,Towner,ND,48.584615,-99.234305
38097,Traill,ND,47.491264,-97.226828
38099,Walsh,ND,48.390892,-97.555232
38101,Ward,ND,48.256527,-101.329338
38103,Wells,ND,47.676761,-99.781286
38105,Williams,ND,48.199801,-103.563682
39001,Adams,OH,38.848346,-83.517043
39003,Allen,OH,40.757675,-84.121928
39005,Ashland,OH,40.855217,-82.285667
39007,Ashtabula,OH,41.795339,-80.767571
39009,Athens,OH,39.345128,-82.10024
39011,Auglaize,OH,40.545245,-84.269481
39013,Belmont,OH,40.042095,-80.88884
39015,Brown,OH,38.948158,-83.892944
39017,Butler,OH,39.410684,-84.500267
39019,Carroll,OH,40.608318,-81.114892
39021,Champaign,OH,40.120684,-83.76028
39023,Clark,OH,39.927147,-83.832287
39025,Clermont,OH,39.103441,-84.212568
39027,Clinton,OH,39.410549,-83.842336
39029,Columbiana,OH,40.777774,-80.730264
39031,Coshocton,OH,40.290804,-81.86512
39033,Crawford,OH,40.797377,-82.874776
39035,Cuyahoga,OH,41.449624,-81.676037
39037,Darke,OH,40.115612,-84.608214
39039,Defiance,OH,41.295398,-84.449086
39041,Delaware,OH,40.216351,-83.013223
39043,Erie,OH,41.405481,-82.627891
39045,Fairfield,OH,39.795111,-82.666944
39047,Fayette,OH,39.549717,-83.443808
39049,Franklin,OH,39.999581,-82.993223
39051,Fulton,OH,41.5785,-84.094751
39053,Gallia,OH,38.830629,-82.274096
39055,Geauga,OH,41.489615,-81.221561
39057,Greene,OH,39.726404,-83.996686
39059,Guernsey,OH,40.016788,-81.541827
39061,Hamilton,OH,39.180332,-84.50859
39063,Hancock,OH,41.039056,-83.641951
39065,Hardin,OH,40.689386,-83.675755
39067,Harrison,OH,40.308636,-81.050672
39069,Henry,OH,41.358702,-84.076961
39071,Highland,OH,39.220062,-83.581988
39073,Hocking,OH,39.522194,-82.446275
39075,Holmes,OH,40.567391,-81.872764
39077,Huron,OH,41.175374,-82.614391
39079,Jackson,OH,39.036265,-82.610661
39081,Jefferson,OH,40.365108,-80.694228
39083,Knox,OH,40.399128,-82.454649
39085,Lake,OH,41.685888,-81.319338
39087,Lawrence,OH,38.503018,-82.540684
39089,Licking,OH,40.05271,-82.515759
39091,Logan,OH,40.383676,-83.779471
39093,Lorain,OH,41.38987,-82.112376
39095,Lucas,OH,41.652803,-83.615345
39097,Madison,OH,39.924376,-83.379953
39099,Mahoning,OH,41.049535,-80.696308
39101,Marion,OH,40.58206,-83.129156
39103,Medina,OH,41.144056,-81.84012
39105,Meigs,OH,39.060946,-82.013323
39107,Mercer,OH,40.517287,-84.608376
39109,Miami,OH,40.046907,-84.234863
39111,Monroe,OH,39.741292,-81.06521
39113,Montgomery,OH,39.746151,-84.207549
39115,Morgan,OH,39.61669,-81.866143
39117,Morrow,OH,40.518848,-82.795365
39119,Muskingum,OH,39.961284,-81.996883
39121,Noble,OH,39.77163,-81.485165
39123,Ottawa,OH,41.531718,-83.081463
39125,Paulding,OH,41.132218,-84.584535
39127,Perry,OH,39.754136,-82.234082
39129,Pickaway,OH,39.666509,-82.993084
39131,Pike,OH,39.083994,-83.038173
39133,Portage,OH,41.17947,-81.273457
39135,Preble,OH,39.743738,-84.624466
39137,Putnam,OH,41.0083,-84.11802
39139,Richland,OH,40.762374,-82.540347
39141,Ross,OH,39.340682,-83.022104
39143,Sandusky,OH,41.341058,-83.101952
39145,Scioto,OH,38.781629,-82.945444
39147,Seneca,OH,41.127601,-83.201322
39149,Shelby,OH,40.318869,-84.192139
39151,Stark,OH,40.837013,-81.387172
39153,Summit,OH,41.112957,-81.512898
39155,Trumbull,OH,41.240415,-80.759806
39157,Tuscarawas,OH,40.479556,-81.465322
39159,Union,OH,40.252214,-83.350113
39161,Van Wert,OH,40.856353,-84.565522
39163,Vinton,OH,39.240104,-82.503644
39165,Warren,OH,39.424293,-84.245128
39167,Washington,OH,39.41251,-81.512663
39169,Wayne,OH,40.838544,-81.864335
39171,Williams,OH,41.533691,-84.573035
39173,Wood,OH,41.44828,-83.601066
39175,Wyandot,OH,40.865953,-83.298153
40001,Adair,OK,35.887523,-94.63575
40003,Alfalfa,OK,36.660625,-98.318501
40005,Atoka,OK,34.324459,-96.090179
40007,Beaver,OK,36.818228,-100.616419
40009,Beckham,OK,35.361391,-99.512486
40011,Blaine,OK,35.884817,-98.420662
40013,Bryan,OK,33.977295,-96.383822
40015,Caddo,OK,35.147225,-98.338494
40017,Canadian,OK,35.491254,-97.78114
40019,Carter,OK,34.192075,-97.20457
40021,Cherokee,OK,35.900171,-94.994163
40023,Choctaw,OK,34.020247,-95.533567
40025,Cimarron,OK,36.729185,-102.485321
40027,Cleveland,OK,35.266627,-97.447024
40029,Coal,OK,34.546448,-96.278023
40031,Comanche,OK,34.629215,-98.421648
40033,Cotton,OK,34.307791,-98.332256
40035,Craig,OK,36.675666,-95.153823
40037,Creek,OK,35.974422,-96.233839
40039,Custer,OK,35.547405,-98.839507
40041,Delaware,OK,36.463017,-94.794943
40043,Dewey,OK,36.052429,-99.06334
40045,Ellis,OK,36.265997,-99.784141
40047,Garfield,OK,36.398165,-97.883789
40049,Garvin,OK,34.735648,-97.288696
40051,Grady,OK,35.099526,-97.861894
40053,Grant,OK,36.762627,-97.774047
40055,Greer,OK,34.915219,-99.459421
40057,Harmon,OK,34.694761,-99.897993
40059,Harper,OK,36.771519,-99.757532
40061,Haskell,OK,35.237804,-95.121608
40063,Hughes,OK,35.081959,-96.32078
40065,Jackson,OK,34.653404,-99.335932
40067,Jefferson,OK,34.128114,-97.866159
40069,Johnston,OK,34.263937,-96.654549
40071,Kay,OK,36.745203,-97.128546
40073,Kingfisher,OK,35.915329,-97.912409
40075,Kiowa,OK,34.936358,-99.015436
40077,Latimer,OK,34.883191,-95.258464
40079,Le Flore,OK,35.061854,-94.641301
40081,Lincoln,OK,35.659026,-96.882293
40083,Logan,OK,35.832833,-97.439988
40085,Love,OK,33.927597,-97.171716
40087,McClain,OK,35.092174,-97.514971
40089,McCurtain,OK,34.001191,-94.816419
40091,McIntosh,OK,35.38549,-95.580112
40093,Major,OK,36.301932,-98.421761
40095,Marshall,OK,34.020632,-96.754422
40097,Mayes,OK,36.292914,-95.235555
40099,Murray,OK,34.507027,-97.028909
40101,Muskogee,OK,35.709969,-95.368317
40103,Noble,OK,36.322823,-97.233709
40105,Nowata,OK,36.775398,-95.634714
40107,Okfuskee,OK,35.44943,-96.333303
40109,Oklahoma,OK,35.519307,-97.510552
40111,Okmulgee,OK,35.61535,-95.967902
40113,Osage,OK,36.424523,-96.241685
40115,Ottawa,OK,36.858051,-94.837147
40117,Pawnee,OK,36.273127,-96.549785
40119,Payne,OK,36.091385,-97.003156
40121,Pittsburg,OK,34.957989,-95.719834
40123,Pontotoc,OK,34.773665,-96.6714
40125,Pottawatomie,OK,35.317085,-96.951814
40127,Pushmataha,OK,34.336743,-95.477215
40129,Roger Mills,OK,35.633256,-99.654582
40131,Rogers,OK,36.317138,-95.644612
40133,Seminole,OK,35.18355,-96.628173
40135,Sequoyah,OK,35.468313,-94.732692
40137,Stephens,OK,34.517163,-97.945593
40139,Texas,OK,36.71352,-101.449911
40141,Tillman,OK,34.380456,-98.972769
40143,Tulsa,OK,36.105918,-95.914798
40145,Wagoner,OK,36.011259,-95.612267
40147,Washington,OK,36.729169,-95.938601
40149,Washita,OK,35.313031,-99.056867
40151,Woods,OK,36.764048,-98.719763
40153,Woodward,OK,36.426108,-99.383837
41001,Baker,OR,44.779398,-117.765487
41003,Benton,OR,44.571181,-123.278972
41005,Clackamas,OR,45.363365,-122.57415
41007,Clatsop,OR,46.098033,-123.837442
41009,Columbia,OR,45.893189,-122.93005
41011,Coos,OR,43.305343,-124.231247
41013,Crook,OR,44.285943,-120.839327
41015,Curry,OR,42.249909,-124.328547
41017,Deschutes,OR,44.092071,-121.30565
41019,Douglas,OR,43.237447,-123.386761
41021,Gilliam,OR,45.438181,-120.194384
41023,Grant,OR,44.450864,-119.001015
41025,Harney,OR,43.522141,-118.986738
41027,Hood River,OR,45.655533,-121.563132
41029,Jackson,OR,42.34699,-122.858316
41031,Jefferson,OR,44.601999,-121.193198
41033,Josephine,OR,42.404127,-123.386809
41035,Klamath,OR,42.281867,-121.724883
41037,Lake,OR,42.490564,-120.479309
41039,Lane,OR,44.038338,-123.117351
41041,Lincoln,OR,44.712447,-124.000861
41043,Linn,OR,44.554621,-122.959618
41045,Malheur,OR,43.971312,-117.062987
41047,Marion,OR,44.96169,-122.954793
41049,Morrow,OR,45.730088,-119.612758
41051,Multnomah,OR,45.517889,-122.588705
41053,Polk,OR,44.920133,-123.211525
41055,Sherman,OR,45.522409,-120.726192
41057,Tillamook,OR,45.467428,-123.858675
41059,Umatilla,OR,45.798618,-118.952064
41061,Union,OR,45.341758,-118.019473
41063,Wallowa,OR,45.443081,-117.310593
41065,Wasco,OR,45.536003,-121.202594
41067,Washington,OR,45.48421,-122.870641
41069,Wheeler,OR,44.839441,-120.085187
41071,Yamhill,OR,45.237712,-123.140448
42001,Adams,PA,39.851863,-77.158646
42003,Allegheny,PA,40.446249,-79.966538
42005,Armstrong,PA,40.769725,-79.511347
42007,Beaver,PA,40.684545,-80.302592
42009,Bedford,PA,40.053372,-78.477467
42011,Berks,PA,40.364226,-75.908729
42013,Blair,PA,40.485519,-78.3772
42015,Bradford,PA,41.829722,-76.526197
42017,Bucks,PA,40.238922,-75.024632
42019,Butler,PA,40.829199,-79.958665
42021,Cambria,PA,40.406479,-78.800168
42023,Cameron,PA,41.502183,-78.236901
42025,Carbon,PA,40.871762,-75.708746
42027,Centre,PA,40.841087,-77.838248
42029,Chester,PA,39.990871,-75.679351
42031,Clarion,PA,41.183479,-79.427108
42033,Clearfield,PA,40.988404,-78.495829
42035,Clinton,PA,41.141257,-77.451745
42037,Columbia,PA,41.037606,-76.390955
42039,Crawford,PA,41.665952,-80.101229
42041,Cumberland,PA,40.204609,-77.099379
42043,Dauphin,PA,40.306988,-76.796622
42045,Delaware,PA,39.921778,-75.348629
42047,Elk,PA,41.419475,-78.620668
42049,Erie,PA,42.068053,-80.071718
42051,Fayette,PA,39.949668,-79.71427
42053,Forest,PA,41.491795,-79.241027
42055,Franklin,PA,39.882739,-77.656246
42057,Fulton,PA,39.919336,-78.086385
42059,Greene,PA,39.876467,-80.117573
42061,Huntingdon,PA,40.424965,-78.002675
42063,Indiana,PA,40.616037,-79.129455
42065,Jefferson,PA,41.085708,-78.964758
42067,Juniata,PA,40.571523,-77.329618
42069,Lackawanna,PA,41.441266,-75.636058
42071,Lancaster,PA,40.073653,-76.290855
42073,Lawrence,PA,40.986592,-80.336662
42075,Lebanon,PA,40.341615,-76.442891
42077,Lehigh,PA,40.599225,-75.50897
42079,Luzerne,PA,41.199679,-75.929184
42081,Lycoming,PA,41.249888,-76.98414
42083,McKean,PA,41.865308,-78.583174
42085,Mercer,PA,41.263653,-80.336921
42087,Mifflin,PA,40.602421,-77.615982
42089,Monroe,PA,41.037307,-75.308191
42091,Montgomery,PA,40.169886,-75.313634
42093,Montour,PA,40.997428,-76.630083
42095,Northampton,PA,40.699705,-75.320519
42097,Northumberland,PA,40.873395,-76.682108
42099,Perry,PA,40.410162,-77.152841
42101,Philadelphia,PA,40.004629,-75.139469
42103,Pike,PA,41.302232,-74.985987
42105,Potter,PA,41.822324,-77.936972
42107,Schuylkill,PA,40.713737,-76.197364
42109,Snyder,PA,40.786765,-76.981311
42111,Somerset,PA,40.031352,-79.010484
42113,Sullivan,PA,41.470773,-76.49082
42115,Susquehanna,PA,41.822623,-75.770799
42117,Tioga,PA,41.815409,-77.207281
42119,Union,PA,40.97426,-76.957803
42121,Venango,PA,41.406083,-79.766084
42123,Warren,PA,41.851752,-79.238649
42125,Washington,PA,40.204057,-80.144361
42127,Wayne,PA,41.539119,-75.3089
42129,Westmoreland,PA,40.339402,-79.591786
42131,Wyoming,PA,41.539714,-75.938352
42133,York,PA,39.942113,-76.750832
44001,Bristol,RI,41.712119,-71.283919
44003,Kent,RI,41.699105,-71.487993
44005,Newport,RI,41.548265,-71.266661
44007,Providence,RI,41.856551,-71.450538
44009,Washington,RI,41.46723,-71.589511
45001,Abbeville,SC,34.238459,-82.422325
45003,Aiken,SC,33.535417,-81.769514
45005,Allendale,SC,32.994406,-81.292207
45007,Anderson,SC,34.557505,-82.618277
45009,Bamberg,SC,33.269763,-81.074156
45011,Barnwell,SC,33.29489,-81.35449
45013,Beaufort,SC,32.323566,-80.77157
45015,Berkeley,SC,33.068108,-80.032851
45017,Calhoun,SC,33.67638,-80.819428
45019,Charleston,SC,32.822801,-79.979214
45021,Cherokee,SC,35.080073,-81.64701
45023,Chester,SC,34.702761,-81.119727
45025,Chesterfield,SC,34.682027,-80.144685
45027,Clarendon,SC,33.691189,-80.206489
45029,Colleton,SC,32.916002,-80.655455
45031,Darlington,SC,34.326829,-79.983805
45033,Dillon,SC,34.39471,-79.359942
45035,Dorchester,SC,33.000816,-80.21761
45037,Edgefield,SC,33.722044,-81.920292
45039,Fairfield,SC,34.361469,-81.073993
45041,Florence,SC,34.100049,-79.760954
45043,Georgetown,SC,33.453334,-79.269399
45045,Greenville,SC,34.847691,-82.335536
45047,Greenwood,SC,34.204262,-82.148595
45049,Hampton,SC,32.800714,-81.118468
45051,Horry,SC,33.786228,-78.940096
45053,Jasper,SC,32.427942,-81.012491
45055,Kershaw,SC,34.259654,-80.645219
45057,Lancaster,SC,34.758129,-80.74724
45059,Laurens,SC,34.504773,-82.026131
45061,Lee,SC,34.181555,-80.265139
45063,Lexington,SC,33.958732,-81.213684
45065,McCormick,SC,33.883028,-82.293659
45067,Marion,SC,34.164265,-79.336829
45069,Marlboro,SC,34.635883,-79.670645
45071,Newberry,SC,34.268079,-81.575787
45073,Oconee,SC,34.707761,-83.005464
45075,Orangeburg,SC,33.471516,-80.799081
45077,Pickens,SC,34.809329,-82.686452
45079,Richland,SC,34.060483,-80.98649
45081,Saluda,SC,33.995666,-81.706529
45083,Spartanburg,SC,34.962731,-82.000163
45085,Sumter,SC,33.929411,-80.387303
45087,Union,SC,34.73195,-81.625389
45089,Williamsburg,SC,33.654581,-79.733271
45091,York,SC,34.991083,-81.06181
46003,Aurora,SD,43.694057,-98.531305
46005,Beadle,SD,44.368344,-98.226727
46007,Bennett,SD,43.208288,-101.786034
46009,Bon Homme,SD,42.965559,-97.860351
46011,Brookings,SD,44.312257,-96.786838
46013,Brown,SD,45.477807,-98.448464
46015,Brule,SD,43.762079,-99.188651
46017,Buffalo,SD,44.05926,-99.375243
46019,Butte,SD,44.672144,-103.761216
46021,Campbell,SD,45.802878,-100.101667
46023,Charles Mix,SD,43.173936,-98.516453
46025,Clark,SD,44.839529,-97.710087
46027,Clay,SD,42.811174,-96.93806
46029,Codington,SD,44.913901,-97.131386
46031,Corson,SD,45.764089,-100.924599
46033,Custer,SD,43.739996,-103.518429
46035,Davison,SD,43.706368,-98.041463
46037,Day,SD,45.364549,-97.520104
46039,Deuel,SD,44.736642,-96.658745
46041,Dewey,SD,45.116808,-101.117074
46043,Douglas,SD,43.37109,-98.357737
46045,Edmunds,SD,45.453502,-99.160435
46047,Fall River,SD,43.388192,-103.514809
46049,Faulk,SD,45.077019,-99.11707
46051,Grant,SD,45.205831,-96.652826
46053,Gregory,SD,43.182985,-99.278797
46055,Haakon,SD,44.130701,-101.577551
46057,Hamlin,SD,44.647395,-97.142214
46059,Hand,SD,44.529314,-98.990895
46061,Hanson,SD,43.658195,-97.780795
46063,Harding,SD,45.612413,-103.525357
46065,Hughes,SD,44.382662,-100.305241
46067,Hutchinson,SD,43.336046,-97.746735
46069,Hyde,SD,44.511151,-99.46011
46071,Jackson,SD,43.662756,-101.651749
46073,Jerauld,SD,44.087702,-98.562253
46075,Jones,SD,43.902516,-100.697764
46077,Kingsbury,SD,44.374375,-97.405002
46079,Lake,SD,44.002691,-97.10012
46081,Lawrence,SD,44.447051,-103.800718
46083,Lincoln,SD,43.427562,-96.746072
46085,Lyman,SD,43.951381,-99.721302
46087,McCook,SD,43.666866,-97.344878
46089,McPherson,SD,45.760167,-99.263772
46091,Marshall,SD,45.766216,-97.619971
46093,Meade,SD,44.296996,-103.288909
46095,Mellette,SD,43.548671,-100.814632
46097,Miner,SD,44.01589,-97.555355
46099,Minnehaha,SD,43.559391,-96.732329
46101,Moody,SD,44.019542,-96.65761
46103,Pennington,SD,44.064633,-103.213752
46105,Perkins,SD,45.711883,-102.322856
46107,Potter,SD,45.076727,-99.909039
46109,Roberts,SD,45.61302,-96.952207
46111,Sanborn,SD,44.006288,-98.149484
46115,Spink,SD,44.910381,-98.429642
46117,Stanley,SD,44.363198,-100.436337
46119,Sully,SD,44.710627,-100.121731
46121,Todd,SD,43.248143,-100.783743
46123,Tripp,SD,43.349802,-99.851545
46125,Turner,SD,43.301965,-97.115892
46127,Union,SD,42.702762,-96.600368
46129,Walworth,SD,45.520019,-100.313424
46135,Yankton,SD,42.902431,-97.394907
46137,Ziebach,SD,44.939041,-101.524925
47001,Anderson,TN,36.082029,-84.180288
47003,Bedford,TN,35.51241,-86.464741
47005,Benton,TN,36.071513,-88.09002
47007,Bledsoe,TN,35.612132,-85.195883
47009,Blount,TN,35.752926,-83.973022
47011,Bradley,TN,35.166015,-84.859341
47013,Campbell,TN,36.383124,-84.125923
47015,Cannon,TN,35.80032,-86.06262
47017,Carroll,TN,36.018048,-88.464475
47019,Carter,TN,36.318376,-82.201421
47021,Cheatham,TN,36.269635,-87.063974
47023,Chester,TN,35.436863,-88.622571
47025,Claiborne,TN,36.491598,-83.64175
47027,Clay,TN,36.553965,-85.560947
47029,Cocke,TN,35.947227,-83.174767
47031,Coffee,TN,35.454014,-86.124954
47033,Crockett,TN,35.789488,-89.122632
47035,Cumberland,TN,35.954565,-85.020109
47037,Davidson,TN,36.140596,-86.74545
47039,Decatur,TN,35.610752,-88.126566
47041,DeKalb,TN,35.966234,-85.838617
47043,Dickson,TN,36.106096,-87.345598
47045,Dyer,TN,36.058797,-89.359385
47047,Fayette,TN,35.203083,-89.470445
47049,Fentress,TN,36.365518,-84.93663
47051,Franklin,TN,35.206924,-86.116239
47053,Gibson,TN,35.938053,-88.876406
47055,Giles,TN,35.191241,-87.031071
47057,Grainger,TN,36.269199,-83.483361
47059,Greene,TN,36.177294,-82.833456
47061,Grundy,TN,35.341946,-85.720235
47063,Hamblen,TN,36.215973,-83.296406
47065,Hamilton,TN,35.093485,-85.205177
47067,Hancock,TN,36.517795,-83.23135
47069,Hardeman,TN,35.22229,-89.017224
47071,Hardin,TN,35.199678,-88.226837
47073,Hawkins,TN,36.462944,-82.873902
47075,Haywood,TN,35.586187,-89.267291
47077,Henderson,TN,35.648436,-88.402036
47079,Henry,TN,36.319164,-88.293739
47081,Hickman,TN,35.852522,-87.403679
47083,Houston,TN,36.304687,-87.70333
47085,Humphreys,TN,36.072233,-87.774505
47087,Jackson,TN,36.329916,-85.628303
47089,Jefferson,TN,36.067034,-83.453522
47091,Johnson,TN,36.450735,-81.843103
47093,Knox,TN,35.973839,-83.985913
47095,Lake,TN,36.357362,-89.468133
47097,Lauderdale,TN,35.762745,-89.54174
47099,Lawrence,TN,35.2351,-87.355853
47101,Lewis,TN,35.533806,-87.523745
47103,Lincoln,TN,35.107495,-86.574658
47105,Loudon,TN,35.759679,-84.286322
47107,McMinn,TN,35.425632,-84.598553
47109,McNairy,TN,35.177181,-88.542589
47111,Macon,TN,36.535537,-86.022066
47113,Madison,TN,35.650005,-88.822589
47115,Marion,TN,35.109364,-85.604158
47117,Marshall,TN,35.488656,-86.772777
47119,Maury,TN,35.623,-87.045667
47121,Meigs,TN,35.503802,-84.815615
47123,Monroe,TN,35.517149,-84.353878
47125,Montgomery,TN,36.551703,-87.352951
47127,Moore,TN,35.297553,-86.341444
47129,Morgan,TN,36.098632,-84.590381
47131,Obion,TN,36.396173,-89.080699
47133,Overton,TN,36.348292,-85.322853
47135,Perry,TN,35.652569,-87.858652
47137,Pickett,TN,36.566056,-85.141613
47139,Polk,TN,35.125651,-84.565986
47141,Putnam,TN,36.163405,-85.503295
47143,Rhea,TN,35.556242,-84.955218
47145,Roane,TN,35.882073,-84.524136
47147,Robertson,TN,36.484933,-86.832296
47149,Rutherford,TN,35.892016,-86.44798
47151,Scott,TN,36.453953,-84.506554
47153,Sequatchie,TN,35.354219,-85.392052
47155,Sevier,TN,35.861562,-83.580944
47157,Shelby,TN,35.131228,-89.894188
47159,Smith,TN,36.241092,-85.968484
47161,Stewart,TN,36.493717,-87.798679
47163,Sullivan,TN,36.531452,-82.394917
47165,Sumner,TN,36.398559,-86.536931
47167,Tipton,TN,35.478427,-89.748046
47169,Trousdale,TN,36.393982,-86.170445
47171,Unicoi,TN,36.149453,-82.396177
47173,Union,TN,36.243267,-83.816526
47175,Van Buren,TN,35.723509,-85.45447
47177,Warren,TN,35.695537,-85.792646
47179,Washington,TN,36.324631,-82.434713
47181,Wayne,TN,35.257711,-87.789817
47183,Weakley,TN,36.292721,-88.773558
47185,White,TN,35.939892,-85.487471
47187,Williamson,TN,35.920355,-86.85552
47189,Wilson,TN,36.201286,-86.404093
48001,Anderson,TX,31.776143,-95.687072
48003,Andrews,TX,32.32166,-102.542123
48005,Angelina,TX,31.312605,-94.714115
48007,Aransas,TX,28.030072,-97.071875
48009,Archer,TX,33.70449,-98.610345
48011,Armstrong,TX,35.085722,-101.392092
48013,Atascosa,TX,29.034632,-98.576202
48015,Austin,TX,29.853256,-96.221858
48017,Bailey,TX,34.216557,-102.745529
48019,Bandera,TX,29.703543,-99.036031
48021,Bastrop,TX,30.144282,-97.358916
48023,Baylor,TX,33.596338,-99.26133
48025,Bee,TX,28.396655,-97.736901
48027,Bell,TX,31.084262,-97.592082
48029,Bexar,TX,29.479255,-98.525238
48031,Blanco,TX,30.185496,-98.393265
48033,Borden,TX,32.746089,-101.426185
48035,Bosque,TX,31.86216,-97.576972
48037,Bowie,TX,33.436159,-94.203466
48039,Brazoria,TX,29.329215,-95.385415
48041,Brazos,TX,30.628865,-96.33059
48043,Brewster,TX,30.217438,-103.617388
48045,Briscoe,TX,34.440834,-101.232801
48047,Brooks,TX,27.204776,-98.144221
48049,Brown,TX,31.731622,-98.989458
48051,Burleson,TX,30.479774,-96.646318
48053,Burnet,TX,30.671778,-98.244836
48055,Caldwell,TX,29.852388,-97.686629
48057,Calhoun,TX,28.586063,-96.625056
48059,Callahan,TX,32.346951,-99.448422
48061,Cameron,TX,26.045736,-97.556998
48063,Camp,TX,32.990653,-94.98408
48065,Carson,TX,35.384076,-101.329281
48067,Cass,TX,33.079821,-94.299328
48069,Castro,TX,34.521244,-102.26892
48071,Chambers,TX,29.801262,-94.741728
48073,Cherokee,TX,31.904972,-95.211216
48075,Childress,TX,34.428815,-100.225433
48077,Clay,TX,33.828051,-98.245004
48079,Cochran,TX,33.687756,-102.737454
48081,Coke,TX,31.904324,-100.405638
48083,Coleman,TX,31.808605,-99.423304
48085,Collin,TX,33.099357,-96.693057
48087,Collingsworth,TX,34.863545,-100.216872
48089,Colorado,TX,29.661294,-96.536638
48091,Comal,TX,29.764495,-98.221819
48093,Comanche,TX,31.969672,-98.557373
48095,Concho,TX,31.280122,-99.859636
48097,Cooke,TX,33.610424,-97.137065
48099,Coryell,TX,31.239826,-97.828854
48101,Cottle,TX,34.019044,-100.300376
48103,Crane,TX,31.400898,-102.352002
48105,Crockett,TX,30.707106,-101.220153
48107,Crosby,TX,33.664489,-101.361212
48109,Culberson,TX,31.071834,-104.821069
48111,Dallam,TX,36.110008,-102.577929
48113,Dallas,TX,32.808956,-96.788197
48115,Dawson,TX,32.73465,-101.949316
48117,Deaf Smith,TX,34.835104,-102.402042
48119,Delta,TX,33.37458,-95.704605
48121,Denton,TX,33.109148,-97.019684
48123,Dewitt,TX,29.101571,-97.313585
48125,Dickens,TX,33.534982,-100.852578
48127,Dimmit,TX,28.519099,-99.817579
48129,Donley,TX,34.94207,-100.85405
48131,Duval,TX,27.729918,-98.389589
48133,Eastland,TX,32.356034,-98.840622
48135,Ector,TX,31.864941,-102.3858
48137,Edwards,TX,29.977801,-100.19957
48139,Ellis,TX,32.423916,-96.815886
48141,El Paso,TX,31.782045,-106.375936
48143,Erath,TX,32.206569,-98.228806
48145,Falls,TX,31.260968,-96.950734
48147,Fannin,TX,33.561545,-96.175947
48149,Fayette,TX,29.8524,-96.897998
48151,Fisher,TX,32.77399,-100.413883
48153,Floyd,TX,34.042836,-101.376103
48155,Foard,TX,33.991937,-99.701195
48157,Fort Bend,TX,29.613217,-95.663045
48159,Franklin,TX,33.126081,-95.223453
48161,Freestone,TX,31.696374,-96.209634
48163,Frio,TX,28.845787,-99.107465
48165,Gaines,TX,32.760539,-102.658431
48167,Galveston,TX,29.424115,-95.013496
48169,Garza,TX,33.198856,-101.385674
48171,Gillespie,TX,30.272524,-98.905778
48173,Glasscock,TX,31.851318,-101.514268
48175,Goliad,TX,28.704105,-97.370374
48177,Gonzales,TX,29.476703,-97.50357
48179,Gray,TX,35.527957,-100.938403
48181,Grayson,TX,33.649485,-96.624643
48183,Gregg,TX,32.49808,-94.79133
48185,Grimes,TX,30.447103,-96.009259
48187,Guadalupe,TX,29.598985,-98.097778
48189,Hale,TX,34.145755,-101.739801
48191,Hall,TX,34.658133,-100.604341
48193,Hamilton,TX,31.761315,-98.099032
48195,Hansford,TX,36.213931,-101.273482
48197,Hardeman,TX,34.283002,-99.694647
48199,Hardin,TX,30.303364,-94.262169
48201,Harris,TX,29.807479,-95.417454
48203,Harrison,TX,32.534967,-94.412978
48205,Hartley,TX,35.984331,-102.488764
48207,Haskell,TX,33.178592,-99.767465
48209,Hays,TX,30.00246,-97.935889
48211,Hemphill,TX,35.893959,-100.364036
48213,Henderson,TX,32.237902,-95.889717
48215,Hidalgo,TX,26.232452,-98.184054
48217,Hill,TX,31.998096,-97.174067
48219,Hockley,TX,33.586415,-102.33483
48221,Hood,TX,32.432951,-97.765687
48223,Hopkins,TX,33.124117,-95.586932
48225,Houston,TX,31.298935,-95.46482
48227,Howard,TX,32.242066,-101.464986
48229,Hudspeth,TX,31.420986,-105.641319
48231,Hunt,TX,33.085785,-96.095018
48233,Hutchinson,TX,35.6807,-101.448842
48235,Irion,TX,31.266676,-100.844201
48237,Jack,TX,33.198497,-98.168776
48239,Jackson,TX,28.961331,-96.594951
48241,Jasper,TX,30.736464,-93.994075
